~Version Information Block
VERS .                  2.0:  CWLS LOG ASCII STANDARD - VERSION 2.0
WRAP .                   NO:  One line per depth step
~Well Information Block
#MNEM.UNIT        Data Type   Information
#---------- ----------------  -----------
STRT .M           393.03960:  START DEPTH
STOP .M          1428.59760:  STOP DEPTH
STEP .M             0.15240:  STEP
NULL .              -999.25:  NULL VALUE
COMP .                     :  COMPANY
WELL .                 KJ-05:  WELL
FLD  .                     :  FIELD
LOC  .                     :  LOCATION
CTRY .                     :  COUNTRY
STAT .                     :  STATE
CNTY .                     :  COUNTY
SRVC .                     :  SERVICE COMPANY
DATE .                     :  DATE
API  .                     :  API NUMBER
UWI  .                     :  UNIQUE WELL ID
~Curve Information Block
#MNEM.UNIT         API CODE   Curve Description
#---------- ----------------  -----------------
DEPTH.M      00 000 000 000:  Depth
CALI .IN     00 000 000 000:  Caliper
DTC  .US/FT   00 000 000 000:  WAVE Compressional
GR   .GAPI   00 000 000 000:  Gamma API
LLD  .OHMM   00 000 000 000:  LLD
NPHI .V/V    00 000 000 000:  Neutron Porosity
PE   .B/E    00 000 000 000:  Pe
RHOB .G/C3   00 000 000 000:  Density
~Parameter Information Block
#MNEM.UNIT            Value   Description
#---------- ----------------  -----------
PROJECT.             KARJISAN:  
SET  .               SPLICE:  
~Other Information Block
# 
~A       DEPTH           CALI            DTC             GR            LLD           NPHI             PE           RHOB 
# ...
    1332.43320         8.9633       142.0350        98.4804         6.1990       0.523053         2.7848         1.9720
    1332.58560         8.9673       144.9430        79.3257         8.2920       0.563527         2.4844         1.7916
    1332.73800         8.8703       147.5805        53.9172        10.6835       0.558640         1.6723         1.4941
    1332.89040         8.8922       150.6721        30.4085        14.6077       0.613433         0.9530         1.2769
    1333.04280         8.9801       153.4833        17.3417        21.1651       0.631685         0.7055         1.2141
    1333.19520         8.9497       156.8604        14.9306        18.3274       0.660850         0.7144         1.2156
    1333.34760         8.9705       159.7618        17.1540        15.7424       0.631579         0.7899         1.2206
    1333.50000         9.0253       161.5858        22.4848        14.7207       0.566408         1.2830         1.2343
    1333.65240         8.9793       162.5910        31.1187        15.7039       0.607881         2.2272         1.2627
    1333.80480         9.0336       161.8769        36.0394        16.8872       0.602701         2.3730         1.2781
    1333.95720         8.9933       161.2408        34.4051        19.8965       0.635250         1.4371         1.2587
    1334.10960         8.9925       160.2048        33.3283        26.9198       0.621310         0.7662         1.2299
    1334.26200         9.0620       157.7578        36.9116        21.6887       0.615984         0.7771         1.2315
    1334.41440         9.0685       153.1477        43.0565        14.3462       0.598281         1.3243         1.2881
    1334.56680         9.1870       149.9473        52.2970         9.8509       0.487409         2.0924         1.4361
    1334.71920         9.1348       146.2928        71.1244         8.2264       0.458657         2.3697         1.6724
    1334.87160         9.1330       143.6817       101.0172         6.1209       0.442781         2.2928         1.8825
    1335.02400         8.9668       141.3181       112.9756         5.7663       0.470004         2.3110         1.9778
    1335.17640         9.0385       138.4679       115.9327         5.5316       0.452865         2.4951         2.0046
    1335.32880         9.0172       136.5509       113.4389         5.9225       0.442761         2.8161         2.0224
    1335.48120         9.1065       135.2350       111.6691         6.3118       0.406239         3.0304         2.0417
    1335.63360         8.9673       132.9280       111.5845         6.7210       0.379038         3.1492         2.0658
    1335.78600         8.9083       130.6575       105.9251         7.5977       0.343886         3.3453         2.0817
    1335.93840         8.8991       129.9101        99.6207         7.5036       0.327175         3.4181         2.0835
    1336.09080         8.9356       130.5757       101.0687         7.1179       0.368910         3.4171         2.0815
    1336.24320         8.9030       132.7651       104.2301         6.5609       0.400753         3.6688         2.0688
    1336.39560         8.9433       135.8736       106.8805         6.5459       0.460014         3.9409         2.0544
    1336.54800         8.9824       138.1322       105.5581         7.0174       0.435583         3.8124         2.0508
    1336.70040         8.9344       137.8034        99.6645         7.5993       0.394396         3.4992         2.0389
    1336.85280         8.8116       135.8507        93.1205         8.3921       0.369057         3.3222         2.0267
    1337.00520         8.7944       132.5966        82.8754         9.4750       0.304874         3.2078         2.0315
    1337.15760         8.7983       129.2477        73.1808        10.9697       0.268754         3.0815         2.0479
    1337.31000         8.8566       126.3493        69.7615        12.9930       0.261609         2.9896         2.0716
    1337.46240         8.8601       124.3871        68.9285        15.0225       0.255059         2.8928         2.0850
    1337.61480         8.9820       124.4759        61.3644        17.4828       0.233390         2.7028         2.0735
    1337.76720         9.0456       125.2966        48.2772        19.0963       0.221784         2.5692         2.0437
    1337.91960         9.1315       127.1629        38.3198        19.5718       0.216390         2.6558         2.0186
    1338.07200         9.2520       129.2090        33.4838        19.1095       0.210085         2.8586         2.0128
    1338.22440         8.5355       130.4477        36.1710        15.8964       0.225321         3.1437         2.0448
    1338.37680         8.6012       128.4863        48.7763        12.4446       0.266098         3.6507         2.1605
    1338.52920         8.8353       125.5644        67.0012         8.5032       0.326017         4.4912         2.3361
    1338.68160         8.9799       123.9623        82.9020         7.1296       0.393150         5.1879         2.4449
    1338.83400         8.8275       124.0697        92.6708         6.0694       0.411379         5.0248         2.4141
    1338.98640         8.8293       125.8644        95.1711         5.5025       0.445703         4.5175         2.3234
    1339.13880         8.7519       128.8938        90.6080         4.9999       0.457651         4.2769         2.2649
    1339.29120         8.6621       132.7347        78.8193         5.7496       0.454611         3.8283         2.1699
    1339.44360         8.5657       137.2482        57.9106         7.6895       0.438643         2.8528         1.8933
    1339.59600         8.4797       141.5730        35.2773        11.9053       0.580284         1.7137         1.5007
    1339.74840         8.4988       145.2106        21.1528        27.1547       0.630890         1.0262         1.2382
    1339.90080         8.4788       149.4808        15.8392        67.8635       0.581739         0.8737         1.1705
    1340.05320         8.4588       153.3700        13.8563        71.1988       0.616293         0.8781         1.1729
    1340.20560         8.4701       155.6901        12.8317        80.9369       0.631610         0.8687         1.1750
    1340.35800         8.4214       157.4205        12.6406        76.6026       0.645859         0.8237         1.1737
    1340.51040         8.4161       158.1701        12.9632        71.1138       0.688197         0.7356         1.1694
    1340.66280         8.4639       159.3174        12.8873        63.4169       0.706225         0.6530         1.1712
    1340.81520         8.5270       160.5056        16.8325        47.0034       0.635741         0.6400         1.1868
    1340.96760         8.6239       162.5818        28.6469        21.9805       0.556213         0.8811         1.2247
    1341.12000         8.6914       162.8416        45.4219         8.1146       0.524363         2.2050         1.2991
    1341.27240         8.9046       159.0404        63.1204         5.9713       0.573197         4.5224         1.4343
    1341.42480         9.6439       147.5461        81.8325         5.3708       0.465754         5.5512         1.6711
    1341.57720         8.8102       135.8558        91.0831         5.7757       0.370226         4.6855         1.9307
    1341.72960         8.3451       122.0651        76.7517         8.6364       0.294101         3.8520         2.0589
    1341.88200         8.5160       110.6613        54.6081        12.6982       0.266070         3.7855         2.0720
    1342.03440         8.5035       108.4547        44.3323        15.6069       0.269679         3.9071         2.0642
    1342.18680         8.5397       107.5905        44.1870        15.8954       0.290050         3.9432         2.0570
    1342.33920         8.7785       107.9738        48.2685        15.2038       0.302513         4.2007         2.0505
    1342.49160         8.8035       107.7056        51.3774        15.5270       0.295262         4.7450         2.0434
