~Version Information Block
VERS .                  2.0:  CWLS LOG ASCII STANDARD - VERSION 2.0
WRAP .                   NO:  One line per depth step
~Well Information Block
#MNEM.UNIT        Data Type   Information
#---------- ----------------  -----------
STRT .M           393.03960:  START DEPTH
STOP .M          1428.59760:  STOP DEPTH
STEP .M             0.15240:  STEP
NULL .              -999.25:  NULL VALUE
COMP .                     :  COMPANY
WELL .                 KJ-05:  WELL
FLD  .                     :  FIELD
LOC  .                     :  LOCATION
CTRY .                     :  COUNTRY
STAT .                     :  STATE
CNTY .                     :  COUNTY
SRVC .                     :  SERVICE COMPANY
DATE .                     :  DATE
API  .                     :  API NUMBER
UWI  .                     :  UNIQUE WELL ID
~Curve Information Block
#MNEM.UNIT         API CODE   Curve Description
#---------- ----------------  -----------------
DEPTH.M      00 000 000 000:  Depth
CALI .IN     00 000 000 000:  Caliper
DTC  .US/FT   00 000 000 000:  WAVE Compressional
GR   .GAPI   00 000 000 000:  Gamma API
LLD  .OHMM   00 000 000 000:  LLD
NPHI .V/V    00 000 000 000:  Neutron Porosity
PE   .B/E    00 000 000 000:  Pe
RHOB .G/C3   00 000 000 000:  Density
~Parameter Information Block
#MNEM.UNIT            Value   Description
#---------- ----------------  -----------
PROJECT.             KARJISAN:  
SET  .               SPLICE:  
~Other Information Block
# 
~A       DEPTH           CALI            DTC             GR            LLD           NPHI             PE           RHOB 
# ...
    1199.69280         9.0875       130.2386        28.2536         0.3183       0.359062         7.6932         2.8215
    1199.84520         9.2197       127.2372        27.2015         0.2471       0.340564         7.5331         2.8168
    1199.99760         9.2905       124.2734        29.7029         0.2232       0.356336         7.7033         2.8528
    1200.15000         9.4119       124.2182        32.3051         0.3515       0.370155         7.8265         2.8804
    1200.30240         9.4918       126.7728        40.9059         0.7286       0.395114         7.4393         2.7357
    1200.45480         9.4532       134.1407        58.3210         1.1992       0.398586         6.9504         2.4356
    1200.60720         9.8921       141.6648        73.1903         2.1582       0.430311         6.9891         2.1981
    1200.75960        10.1971       147.1882        78.1931         1.6804       0.479847         7.2050         2.1254
    1200.91200        10.1140       150.7126        80.8546         1.5424       0.546347         7.0240         2.0967
    1201.06440        10.6281       150.3434        83.9784         1.4985       0.693680         6.9613         2.0382
    1201.21680        10.6866       149.8159        85.7211         1.6376       0.563243         7.1613         2.0041
    1201.36920        11.6093       149.0931        83.3560         1.7470       0.447978         6.9239         2.0050
    1201.52160        11.5158       147.3928        78.1170         2.0092       0.494527         6.3866         2.0131
    1201.67400        11.6729       144.9131        76.0395         1.9945       0.469988         5.9293         2.0339
    1201.82640        12.0465       143.6780        75.5671         2.0740       0.436737         5.6221         2.0570
    1201.97880        12.3230       142.5825        78.7791         2.0639       0.415475         5.7129         2.0590
    1202.13120        12.0516       142.1256        83.0415         2.0960       0.430229         6.0270         2.0419
    1202.28360        12.0774       142.1532        74.1868         2.0801       0.425081         6.2563         2.0293
    1202.43600        12.1981       142.2656        66.3718         2.0885       0.442511         6.4346         2.0364
    1202.58840        12.1806       142.2808        68.1518         2.1104       0.475104         6.3626         2.0454
    1202.74080        11.7175       142.1706        72.6370         2.1207       0.494480         6.1741         2.0225
    1202.89320        11.8270       141.9487        71.3004         2.1885       0.496853         6.2947         1.9850
    1203.04560        11.6466       141.7935        67.7261         2.1478       0.453821         6.4519         1.9729
    1203.19800        12.2783       141.8929        68.5322         2.1586       0.455582         6.5776         1.9645
    1203.35040        12.7544       143.2578        68.6883         2.1144       0.472354         7.0306         1.9368
    1203.50280        13.1102       144.1750        66.1513         2.0467       0.468823         7.4971         1.9092
    1203.65520        12.7597       144.4710        65.3985         1.9717       0.513717         7.4966         1.8858
    1203.80760        12.6416       143.8520        67.8258         1.8745       0.448172         7.0334         1.8791
    1203.96000        12.4950       141.8263        71.0326         1.8283       0.447469         6.4519         1.9249
    1204.11240        12.8703       139.5008        73.6200         1.7390       0.424335         6.1207         1.9927
    1204.26480        12.4518       136.6291        71.5424         1.7571       0.460893         6.0638         2.0411
    1204.41720        12.0455       134.7040        67.9503         1.8350       0.451292         6.2578         2.0696
    1204.56960        11.5030       134.0585        69.3611         2.2835       0.441268         6.9783         2.0353
    1204.72200        11.1233       134.0586        71.8269         2.9341       0.467167         7.8730         1.9578
    1204.87440        10.6471       134.5094        73.7682         3.2953       0.437783         7.8567         1.9824
    1205.02680        10.5517       135.5669        74.0023         1.2234       0.450005         7.1897         2.1463
    1205.17920         9.3274       138.1597        65.6089         0.6613       0.482287         6.9670         2.3791
    1205.33160         9.0437       140.5104        53.4545         0.3848       0.473171         7.2635         2.5234
    1205.48400         9.0443       141.4147        49.4801         0.4933       0.518222         7.5701         2.3702
    1205.63640         9.6752       143.6270        57.9268         0.7006       0.522178         7.6408         2.0744
    1205.78880         9.4966       148.0052        67.9681         1.5022       0.492680         7.6653         1.9436
    1205.94120         9.6844       150.8949        72.7190         2.8121       0.495909         7.5849         1.9530
    1206.09360        11.0479       151.0972        71.7113         2.3253       0.510765         7.3182         1.9623
    1206.24600        11.7070       150.0747        69.4678         1.9441       0.451202         7.0120         1.9479
    1206.39840        11.8230       147.9660        68.7031         1.8049       0.452671         6.5419         1.9510
    1206.55080        12.5066       146.8706        67.7162         1.7521       0.473085         6.2582         1.9618
    1206.70320        12.5391       145.2765        64.5449         1.7466       0.456237         6.5932         1.9388
    1206.85560        12.3156       143.6803        63.6795         1.3849       0.465364         6.8631         1.9530
    1207.00800        11.6747       142.7736        65.4726         1.2995       0.477423         6.7636         1.9927
    1207.16040        10.0807       142.5620        63.5373         1.3180       0.495038         6.0207         2.1406
    1207.31280        10.7083       142.3756        63.4424         1.3299       0.456560         5.7469         2.1532
    1207.46520        11.3792       142.0658        67.1586         1.4745       0.473754         5.7991         2.1255
    1207.61760        11.8072       142.0025        69.5588         1.7604       0.479408         5.9274         2.1094
    1207.77000        11.1106       142.2992        70.9896         1.8067       0.446325         5.8204         2.1020
    1207.92240        10.8110       142.4278        70.1832         1.8503       0.434994         5.6750         2.0834
    1208.07480        10.6592       142.2346        67.4494         1.8248       0.424293         5.9455         2.0575
    1208.22720        10.4057       140.6093        64.6665         1.6893       0.407272         6.3962         2.0401
    1208.37960        10.8543       138.7016        63.2231         1.7297       0.408904         6.4461         2.0492
    1208.53200        11.1588       135.8876        65.0251         1.9243       0.431125         6.1711         2.0682
    1208.68440         9.2519       133.9041        71.6916         2.4029       0.420610         5.7681         2.0783
    1208.83680         9.2073       132.9080        81.7980         2.6011       0.448025         5.4022         2.0814
    1208.98920         9.4326       132.6294        81.7150         2.5948       0.460644         5.6018         2.0526
    1209.14160        10.1721       133.7695        73.9589         2.3735       0.457306         6.5350         2.0034
    1209.29400        10.8106       136.3604        76.6460         2.1404       0.446812         7.3318         1.9686
    1209.44640        11.0978       139.7720        81.7644         1.9023       0.439589         7.1782         1.9703
    1209.59880        10.9363       142.1588        78.2998         1.9470       0.426609         6.5334         2.0251
    1209.75120         9.8010       141.8066        72.3811         1.8454       0.426502         6.0357         2.0992
