~Version Information Block
VERS .                  2.0:  CWLS LOG ASCII STANDARD - VERSION 2.0
WRAP .                   NO:  One line per depth step
~Well Information Block
#MNEM.UNIT        Data Type   Information
#---------- ----------------  -----------
STRT .M           393.03960:  START DEPTH
STOP .M          1428.59760:  STOP DEPTH
STEP .M             0.15240:  STEP
NULL .              -999.25:  NULL VALUE
COMP .                     :  COMPANY
WELL .                 KJ-05:  WELL
FLD  .                     :  FIELD
LOC  .                     :  LOCATION
CTRY .                     :  COUNTRY
STAT .                     :  STATE
CNTY .                     :  COUNTY
SRVC .                     :  SERVICE COMPANY
DATE .                     :  DATE
API  .                     :  API NUMBER
UWI  .                     :  UNIQUE WELL ID
~Curve Information Block
#MNEM.UNIT         API CODE   Curve Description
#---------- ----------------  -----------------
DEPTH.M      00 000 000 000:  Depth
CALI .IN     00 000 000 000:  Caliper
DTC  .US/FT   00 000 000 000:  WAVE Compressional
GR   .GAPI   00 000 000 000:  Gamma API
LLD  .OHMM   00 000 000 000:  LLD
NPHI .V/V    00 000 000 000:  Neutron Porosity
PE   .B/E    00 000 000 000:  Pe
RHOB .G/C3   00 000 000 000:  Density
~Parameter Information Block
#MNEM.UNIT            Value   Description
#---------- ----------------  -----------
PROJECT.             KARJISAN:  
SET  .               SPLICE:  
~Other Information Block
# 
~A       DEPTH           CALI            DTC             GR            LLD           NPHI             PE           RHOB 
# ...
     464.51520         8.7894       134.6456        85.0009         6.0106       0.332810         4.1726         2.1065
     464.66760         8.8524       133.8251        86.7969         6.0524       0.348670         4.1703         2.1123
     464.82000         8.8984       133.0282        84.8201         5.9752       0.335814         4.0954         2.1082
     464.97240         8.9037       131.8119        85.1787         5.7475       0.333937         3.9516         2.1064
     465.12480         8.9082       129.5451        86.6339         6.1793       0.323549         3.8775         2.1182
     465.27720         8.8430       127.4756        82.9085         7.0040       0.335047         4.0100         2.1694
     465.42960         8.8077       127.5350        80.9613         6.7218       0.325593         4.1966         2.2226
     465.58200         8.7863       128.8198        83.9428         6.5246       0.315633         4.2000         2.1972
     465.73440         8.8213       130.8988        82.4887         6.0335       0.439749         4.2129         2.1248
     465.88680         8.8198       133.7997        75.5966         5.2881       0.384402         4.3898         2.0888
     466.03920         8.8174       136.2116        74.1157         5.4910       0.346579         4.4006         2.0917
     466.19160         8.8280       137.2499        69.7760         5.7501       0.330182         4.1719         2.1000
     466.34400         8.8385       137.5201        64.2693         5.8602       0.348774         4.0653         2.1002
     466.49640         8.8429       137.6955        62.9001         5.8254       0.352685         4.0820         2.0910
     466.64880         8.8321       138.2242        62.2925         5.7930       0.353176         3.9811         2.0818
     466.80120         8.7890       138.3207        63.5402         5.7620       0.352352         3.7077         2.0793
     466.95360         8.7979       138.3234        67.0553         5.7592       0.364324         3.3850         2.0739
     467.10600         8.8095       138.2430        65.7957         5.8152       0.357483         3.3160         2.0658
     467.25840         8.7908       138.3873        62.9929         5.8816       0.344127         3.4757         2.0641
     467.41080         8.7807       138.4970        64.9964         5.8138       0.339631         3.6881         2.0630
     467.56320         8.8174       139.2346        65.5497         5.7211       0.340442         4.1547         2.0605
     467.71560         8.8499       140.4906        65.0152         5.6976       0.359716         4.8977         2.0649
     467.86800         8.8630       141.4292        65.3738         5.5990       0.357922         5.6719         2.0733
     468.02040         8.8688       142.0636        63.9314         5.5418       0.345066         6.2319         2.0753
     468.17280         8.8778       142.1725        64.7168         5.5557       0.357416         6.2965         2.0705
     468.32520         8.8660       142.4940        66.8033         5.5523       0.371306         6.0046         2.0652
     468.47760         8.9060       142.5340        69.3640         5.5672       0.365320         5.8067         2.0649
     468.63000         8.9229       141.7269        74.8559         5.6490       0.356466         5.7366         2.0672
     468.78240         8.9493       141.1682        78.4035         5.6748       0.351455         5.6562         2.0661
     468.93480         8.9782       140.4685        77.8404         5.6643       0.363272         5.7420         2.0612
     469.08720         9.0240       139.7189        74.8203         5.6834       0.362669         6.0833         2.0562
     469.23960         9.0614       139.9332        72.9117         5.6871       0.359865         6.3407         2.0558
     469.39200         9.0230       139.9603        72.1381         5.7308       0.348373         6.2555         2.0554
     469.54440         8.8507       139.9210        71.5631         5.7846       0.358082         5.8669         2.0554
     469.69680         8.7218       140.0187        72.6983         5.7905       0.368057         5.2488         2.0610
     469.84920         8.6750       140.5793        70.0872         6.0045       0.358383         4.6894         2.0680
     470.00160         8.6937       141.1553        65.3392         6.5605       0.331764         4.4481         2.0741
     470.15400         8.6949       142.5508        59.5747         7.2026       0.313015         4.4486         2.0844
     470.30640         8.7066       142.7527        50.9383         8.1076       0.294867         4.4922         2.0945
     470.45880         8.8048       143.3735        43.4014         8.9495       0.289522         4.3842         2.0978
     470.61120         8.8434       144.1605        38.8876         9.1837       0.287661         4.2206         2.0942
     470.76360         8.8582       145.0398        39.1099         9.0042       0.306518         4.2938         2.0849
     470.91600         8.8524       145.0777        43.8608         8.6617       0.314727         4.6083         2.0787
     471.06840         8.8475       144.2868        49.2448         8.4625       0.314156         4.9056         2.0773
     471.22080         8.8740       141.4670        53.7488         7.8809       0.320007         4.8804         2.0734
     471.37320         8.8381       137.0293        67.1245         7.5107       0.327128         4.4989         2.0730
     471.52560         8.7669       132.2170        72.7160         7.4526       0.329530         4.1662         2.0826
     471.67800         8.7526       129.9904        76.3585         7.3787       0.337782         4.1425         2.0941
     471.83040         8.7664       127.0723        80.6619         7.3152       0.351636         4.2277         2.1047
     471.98280         8.7680       125.6358        82.9262         7.2514       0.338863         4.1093         2.1143
     472.13520         8.7387       123.6416        83.5575         7.4381       0.327022         3.7476         2.1218
     472.28760         8.7063       121.0000        80.8427         7.9654       0.312971         3.4219         2.1425
     472.44000         8.6929       118.9740        75.6531         8.9125       0.277769         3.3659         2.1849
     472.59240         8.7028       119.4031        74.7107         9.5290       0.278723         3.5422         2.2220
     472.74480         8.7435       122.3142        77.0660         9.4429       0.284467         3.6397         2.2082
     472.89720         8.7692       127.1358        78.9408         8.6477       0.292251         3.4543         2.1447
     473.04960         8.8161       132.9325        72.8894         7.8172       0.320163         3.1909         2.0925
     473.20200         8.8628       138.7026        69.5748         7.4991       0.303556         3.1104         2.0776
     473.35440         8.9599       141.7791        74.0646         7.7459       0.312236         3.2243         2.0764
     473.50680         8.9976       142.1798        77.0307         7.9769       0.333536         3.3660         2.0710
     473.65920         9.0195       141.4185        73.0851         7.9887       0.327010         3.4934         2.0599
     473.81160         9.0300       140.4439        75.8903         7.8801       0.341581         3.6771         2.0562
     473.96400         9.0465       139.7566        79.8830         7.6015       0.350759         3.8146         2.0607
     474.11640         9.0388       138.0690        77.9649         7.1885       0.362048         3.7658         2.0642
     474.26880         9.0274       135.6900        78.8718         6.8165       0.338943         3.6807         2.0674
     474.42120         8.9513       129.9285        81.8563         6.8120       0.319465         3.9391         2.0782
     474.57360         8.8510       119.9299        80.4811         7.9843       0.299609         4.4072         2.1277
