~Version Information Block
VERS .                  2.0:  CWLS LOG ASCII STANDARD - VERSION 2.0
WRAP .                   NO:  One line per depth step
~Well Information Block
#MNEM.UNIT        Data Type   Information
#---------- ----------------  -----------
STRT .M           393.03960:  START DEPTH
STOP .M          1428.59760:  STOP DEPTH
STEP .M             0.15240:  STEP
NULL .              -999.25:  NULL VALUE
COMP .                     :  COMPANY
WELL .                 KJ-05:  WELL
FLD  .                     :  FIELD
LOC  .                     :  LOCATION
CTRY .                     :  COUNTRY
STAT .                     :  STATE
CNTY .                     :  COUNTY
SRVC .                     :  SERVICE COMPANY
DATE .                     :  DATE
API  .                     :  API NUMBER
UWI  .                     :  UNIQUE WELL ID
~Curve Information Block
#MNEM.UNIT         API CODE   Curve Description
#---------- ----------------  -----------------
DEPTH.M      00 000 000 000:  Depth
CALI .IN     00 000 000 000:  Caliper
DTC  .US/FT   00 000 000 000:  WAVE Compressional
GR   .GAPI   00 000 000 000:  Gamma API
LLD  .OHMM   00 000 000 000:  LLD
NPHI .V/V    00 000 000 000:  Neutron Porosity
PE   .B/E    00 000 000 000:  Pe
RHOB .G/C3   00 000 000 000:  Density
~Parameter Information Block
#MNEM.UNIT            Value   Description
#---------- ----------------  -----------
PROJECT.             KARJISAN:  
SET  .               SPLICE:  
~Other Information Block
# 
~A       DEPTH           CALI            DTC             GR            LLD           NPHI             PE           RHOB 
# ...
     934.21200         8.7406       123.6372       103.8836         2.9433       0.390942         3.7817         2.2938
     934.36440         8.7493       124.9572       107.2232         2.8856       0.391071         3.7778         2.2919
     934.51680         8.8243       126.6715       118.3284         2.9279       0.377287         3.7038         2.2770
     934.66920         8.9325       128.4283       134.2735         3.0488       0.421704         3.5347         2.2644
     934.82160         8.9318       129.6652       157.3731         3.2577       0.450264         3.3879         2.2570
     934.97400         8.9432       130.5088       169.9504         3.4242       0.447317         3.5178         2.2422
     935.12640         9.0104       130.0775       171.5528         3.5619       0.461489         3.8842         2.2316
     935.27880         9.1554       128.6050       169.8783         3.5898       0.468178         4.1754         2.2329
     935.43120         9.3884       126.2857       169.4752         3.5150       0.438800         4.4486         2.2306
     935.58360         9.5270       123.7692       167.2929         3.5578       0.439599         4.9376         2.2216
     935.73600         9.5328       121.2873       161.6647         3.7120       0.437890         5.2804         2.2162
     935.88840         9.6587       120.6411       159.8360         3.8722       0.404547         5.1112         2.2299
     936.04080         9.6694       119.6689       163.2621         4.3042       0.393738         4.7249         2.2544
     936.19320        10.0505       118.7508       167.2958         4.3560       0.414439         4.4954         2.2636
     936.34560        10.1932       118.0300       162.9658         3.0695       0.409053         4.3732         2.2555
     936.49800        10.2845       117.4110       162.2456         1.8966       0.397019         4.1799         2.2407
     936.65040         9.7419       116.9486       162.2100         1.5102       0.382804         3.9892         2.2353
     936.80280         9.4562       116.5254       156.4929         1.2115       0.356462         3.9111         2.2428
     936.95520         9.3164       116.6727       147.7764         0.8324       0.329569         3.9646         2.2605
     937.10760         8.7424       117.6285       124.1789         1.2600       0.315446         4.1777         2.2891
     937.26000         8.8733       118.5632        88.0743         1.5885       0.289534         4.3235         2.2862
     937.41240         8.4602       118.6762        64.5864         2.5034       0.283045         4.1588         2.2273
     937.56480         8.4562       118.4453        62.4110         4.0576       0.274693         3.9536         2.1763
     937.71720         8.6989       117.6957        71.4535         4.5257       0.261997         4.0476         2.1772
     937.86960         8.8228       115.2791        76.9305         4.6366       0.251059         4.4339         2.2004
     938.02200         9.1391       112.2319        72.5797         5.3409       0.235206         4.9041         2.2240
     938.17440         9.2431       109.3461        68.1232         5.6212       0.225524         5.2495         2.2422
     938.32680         9.3089       107.2714        71.1255         5.7854       0.234389         5.4304         2.2485
     938.47920         9.2399       106.3820        77.4670         5.4101       0.266042         5.4841         2.2567
     938.63160         9.0921       106.7727        87.0814         5.1154       0.333415         5.4060         2.2789
     938.78400         9.0512       109.1663        95.5074         4.8610       0.408906         5.2974         2.2952
     938.93640         9.0643       113.1007        94.1263         4.6775       0.467480         5.2417         2.2916
     939.08880         9.1371       117.0890        87.8787         4.6295       0.532600         5.1948         2.2821
     939.24120         9.5559       120.0415        84.3844         4.6447       0.455834         5.2784         2.2738
     939.39360         9.5738       123.7522        83.0478         4.6208       0.455047         5.4218         2.2712
     939.54600         9.4535       126.6840        80.6115         4.6437       0.458243         5.3710         2.2801
     939.69840         9.2617       129.5480        80.0454         4.6621       0.430231         5.2127         2.2778
     939.85080         9.4302       132.3511        79.4557         4.4407       0.436946         5.1029         2.2421
     940.00320         9.4153       134.4212        80.6560         4.2182       0.422127         5.1268         2.1953
     940.15560        10.4330       135.1380        87.2919         4.0508       0.492400         5.2884         2.1809
     940.30800        11.4672       131.8924        93.1364         3.8797       0.441677         5.4372         2.1973
     940.46040        10.8252       127.6631        96.1357         3.9773       0.405902         5.5003         2.1997
     940.61280        10.1075       123.5989        97.7688         4.1330       0.405152         5.4792         2.1910
     940.76520        10.3442       120.4869        97.3865         4.2198       0.436589         5.3919         2.2132
     940.91760         9.9169       118.9038        95.8186         4.3255       0.404586         5.2860         2.2583
     941.07000        10.0595       118.9886        98.3082         4.3115       0.416505         5.1576         2.2957
     941.22240        10.0059       119.5152       103.3970         4.3215       0.407040         5.0678         2.3159
     941.37480         9.9740       120.0511       106.8142         4.2928       0.401708         5.1400         2.3204
     941.52720        10.0201       120.6333       106.1889         4.2915       0.406787         5.3006         2.3234
     941.67960         9.7330       120.8442       102.2945         4.2731       0.464434         5.3977         2.3337
     941.83200         9.9780       120.4853        99.5026         4.3544       0.424822         5.4946         2.3360
     941.98440        10.3537       119.4894        90.5550         4.4996       0.402820         5.5677         2.3371
     942.13680        10.4861       118.1015        81.6340         4.8879       0.423409         5.4822         2.3702
     942.28920        10.1200       116.0353        87.3156         5.2316       0.421109         5.4290         2.4216
     942.44160         9.8884       113.9229        97.0516         5.5403       0.408614         5.5523         2.4559
     942.59400         9.8235       113.0496        96.7907         5.8038       0.415777         5.7052         2.4748
     942.74640         9.5807       112.6520        95.8246         5.6916       0.430502         5.7872         2.4844
     942.89880         9.6075       112.4667        97.0456         5.5228       0.444249         5.8008         2.4781
     943.05120         9.6704       112.7480        91.6516         5.4457       0.428531         5.7754         2.4622
     943.20360         9.6843       113.2191        86.3849         5.3924       0.448270         5.7978         2.4494
     943.35600         9.4991       113.8365        86.6547         5.4632       0.454313         5.9840         2.4475
     943.50840         9.7417       114.6572        85.6173         5.6411       0.434185         6.1575         2.4509
     943.66080         9.5404       115.8577        76.2815         5.6685       0.445993         6.0939         2.4390
     943.81320        10.0524       118.5351        66.6907         5.7433       0.441790         5.9116         2.4006
     943.96560        10.2462       122.1960        66.9249         5.6591       0.460221         5.7708         2.3540
     944.11800         9.5510       126.7947        73.2288         5.2987       0.470531         5.6792         2.3214
     944.27040         9.5205       130.8122        78.2405         4.8098       0.456469         5.5183         2.2981
