~Version Information Block
VERS .                  2.0:  CWLS LOG ASCII STANDARD - VERSION 2.0
WRAP .                   NO:  One line per depth step
~Well Information Block
#MNEM.UNIT        Data Type   Information
#---------- ----------------  -----------
STRT .M           393.03960:  START DEPTH
STOP .M          1428.59760:  STOP DEPTH
STEP .M             0.15240:  STEP
NULL .              -999.25:  NULL VALUE
COMP .                     :  COMPANY
WELL .                 KJ-05:  WELL
FLD  .                     :  FIELD
LOC  .                     :  LOCATION
CTRY .                     :  COUNTRY
STAT .                     :  STATE
CNTY .                     :  COUNTY
SRVC .                     :  SERVICE COMPANY
DATE .                     :  DATE
API  .                     :  API NUMBER
UWI  .                     :  UNIQUE WELL ID
~Curve Information Block
#MNEM.UNIT         API CODE   Curve Description
#---------- ----------------  -----------------
DEPTH.M      00 000 000 000:  Depth
CALI .IN     00 000 000 000:  Caliper
DTC  .US/FT   00 000 000 000:  WAVE Compressional
GR   .GAPI   00 000 000 000:  Gamma API
LLD  .OHMM   00 000 000 000:  LLD
NPHI .V/V    00 000 000 000:  Neutron Porosity
PE   .B/E    00 000 000 000:  Pe
RHOB .G/C3   00 000 000 000:  Density
~Parameter Information Block
#MNEM.UNIT            Value   Description
#---------- ----------------  -----------
PROJECT.             KARJISAN:  
SET  .               SPLICE:  
~Other Information Block
# 
~A       DEPTH           CALI            DTC             GR            LLD           NPHI             PE           RHOB 
# ...
     597.25560         8.6890       143.7514        62.1591        10.8688       0.346960         2.7881         1.9824
     597.40800         8.6663       145.6059        66.4003         9.9528       0.346677         2.8394         1.9793
     597.56040         8.7037       148.9551        71.4565         8.8685       0.341993         2.9070         1.9896
     597.71280         8.7791       151.1634        72.4701         8.6985       0.349414         2.9337         2.0056
     597.86520         8.8614       152.5244        73.4837         9.1898       0.327400         2.9419         2.0064
     598.01760         8.7775       154.1529        71.6343         9.4635       0.334190         2.9330         1.9907
     598.17000         8.7825       156.2294        69.8916         9.6754       0.329183         2.9622         1.9791
     598.32240         8.8377       159.3407        73.8897         6.4633       0.343725         3.0285         1.9838
     598.47480         8.9150       162.5845        83.3766         4.1858       0.389823         3.3111         2.0330
     598.62720         8.6241       166.5095        91.4649         3.0067       0.421756         3.4508         2.0591
     598.77960         8.5338       169.6691        95.9681         2.4526       0.472632         3.4141         2.0606
     598.93200         8.5361       172.2617        99.9264         2.2732       0.447532         3.3559         2.0558
     599.08440         8.6270       173.8744       102.9080         2.3057       0.541124         3.4308         2.0556
     599.23680         8.6384       174.8557       104.0490         2.2924       0.448105         3.5799         2.0525
     599.38920         8.5338       174.9617       102.4693         2.2976       0.415362         3.6822         2.0499
     599.54160         8.5624       173.7032        98.8387         2.3291       0.431123         3.6518         2.0499
     599.69400         8.6423       169.7971       100.9845         2.3427       0.429816         3.5350         2.0476
     599.84640         8.6708       167.0261       106.2600         2.3686       0.417490         3.4713         2.0435
     599.99880         8.6282       163.7137       104.5469         2.3610       0.420526         3.5247         2.0446
     600.15120         8.6178       162.1184       101.4824         2.3088       0.429547         3.6182         2.0511
     600.30360         8.5998       161.9813        99.7160         2.2719       0.405812         3.6322         2.0540
     600.45600         8.5552       162.0164       101.8617         2.3076       0.351611         3.5810         2.0515
     600.60840         8.5262       161.9225       103.5096         2.3943       0.455703         3.4991         2.0472
     600.76080         8.5461       161.5948       105.1071         2.4619       0.482702         3.4134         2.0447
     600.91320         8.6562       160.8002       104.7870         2.5247       0.462189         3.4159         2.0490
     601.06560         8.7079       159.6236       102.6383         2.5041       0.445851         3.4671         2.0588
     601.21800         8.6944       158.0743       104.8552         2.4690       0.424742         3.4513         2.0636
     601.37040         8.6932       156.2566       104.0342         2.5876       0.439853         3.4083         2.0661
     601.52280         8.6954       154.8513        98.3872         2.8553       0.395959         3.4793         2.0788
     601.67520         9.1114       153.8998        98.5532         2.9275       0.384604         3.6220         2.0943
     601.82760         9.1606       153.1943       101.1949         3.0361       0.399906         3.6436         2.1003
     601.98000         9.1375       153.2266       102.2549         2.9199       0.396442         3.5585         2.0954
     602.13240         9.1420       154.8799       107.3497         2.7407       0.385891         3.5198         2.0886
     602.28480         8.8354       155.5946       108.5391         2.7215       0.402361         3.4821         2.0851
     602.43720         8.8676       155.3981       103.7615         2.7201       0.398353         3.4518         2.0834
     602.58960         8.9970       154.8808        98.0296         2.7422       0.417850         3.5661         2.0872
     602.74200         9.0936       153.9021        95.9135         2.8145       0.435926         3.7160         2.0987
     602.89440         9.2423       152.7093       100.6021         2.8190       0.399778         3.7294         2.1151
     603.04680         9.2992       151.1137       105.5931         3.0472       0.390600         3.6342         2.1284
     603.19920         9.3748       150.6580       102.4920         3.0095       0.377096         3.5940         2.1308
     603.35160         9.5007       151.5321        96.7720         3.0396       0.381748         3.7746         2.1261
     603.50400         9.6165       153.4293        98.4169         3.1682       0.377794         4.1388         2.1242
     603.65640         9.5297       155.1398        99.9531         2.9889       0.384535         4.2727         2.1214
     603.80880         9.1298       157.6835       100.9430         2.9289       0.404520         3.9490         2.1010
     603.96120         8.8191       160.3253       101.9546         2.6130       0.407334         3.5102         2.0600
     604.11360         8.8242       162.3329       100.7958         2.4225       0.435462         3.2337         2.0257
     604.26600         8.8411       163.5738       100.0275         2.3380       0.437790         3.1591         2.0214
     604.41840         8.8664       163.1707       100.3243         2.3129       0.461647         3.1948         2.0311
     604.57080         8.8638       161.5511        98.0213         2.3203       0.476564         3.2297         2.0383
     604.72320         8.7936       159.6955        97.8300         2.3869       0.462624         3.3142         2.0498
     604.87560         8.8317       158.4245        97.1375         2.4480       0.406512         3.4563         2.0662
     605.02800         9.0471       158.5494        93.6254         2.4544       0.398749         3.5882         2.0714
     605.18040         8.9298       159.3779        95.3948         2.4725       0.426390         3.6827         2.0650
     605.33280         8.6999       160.5752       101.0200         2.3548       0.449726         3.7072         2.0618
     605.48520         8.3969       161.5696        99.0432         2.2926       0.422235         3.7256         2.0568
     605.63760         8.4425       161.1137        93.2402         2.2534       0.414044         3.6730         2.0529
     605.79000         8.6891       159.3476        92.0579         2.2178       0.403538         3.6661         2.0598
     605.94240         8.9347       156.8536        91.7382         2.2067       0.429207         3.8363         2.0839
     606.09480         9.1990       154.1082        88.1127         2.2843       0.418091         4.0634         2.1076
     606.24720         9.2663       151.5934        88.1528         2.3522       0.389202         4.0893         2.1175
     606.39960         9.0970       148.9632        90.2853         2.6707       0.365200         3.9938         2.1150
     606.55200         9.0868       147.9358        88.8874         2.9509       0.359881         3.9746         2.1073
     606.70440         9.0049       147.7010        86.7712         3.1723       0.365089         3.9145         2.1047
     606.85680         9.0020       148.0668        87.7098         3.3198       0.376547         3.8623         2.1036
     607.00920         9.0410       148.5893        87.6268         3.3515       0.372246         3.9922         2.0991
     607.16160         9.0069       149.0282        79.5713         3.2134       0.386546         4.1581         2.0982
     607.31400         9.0119       149.3668        74.0023         3.2437       0.384856         4.1665         2.0969
