~Version Information Block
VERS .                  2.0:  CWLS LOG ASCII STANDARD - VERSION 2.0
WRAP .                   NO:  One line per depth step
~Well Information Block
#MNEM.UNIT        Data Type   Information
#---------- ----------------  -----------
STRT .M           393.03960:  START DEPTH
STOP .M          1428.59760:  STOP DEPTH
STEP .M             0.15240:  STEP
NULL .              -999.25:  NULL VALUE
COMP .                     :  COMPANY
WELL .                 KJ-05:  WELL
FLD  .                     :  FIELD
LOC  .                     :  LOCATION
CTRY .                     :  COUNTRY
STAT .                     :  STATE
CNTY .                     :  COUNTY
SRVC .                     :  SERVICE COMPANY
DATE .                     :  DATE
API  .                     :  API NUMBER
UWI  .                     :  UNIQUE WELL ID
~Curve Information Block
#MNEM.UNIT         API CODE   Curve Description
#---------- ----------------  -----------------
DEPTH.M      00 000 000 000:  Depth
CALI .IN     00 000 000 000:  Caliper
DTC  .US/FT   00 000 000 000:  WAVE Compressional
GR   .GAPI   00 000 000 000:  Gamma API
LLD  .OHMM   00 000 000 000:  LLD
NPHI .V/V    00 000 000 000:  Neutron Porosity
PE   .B/E    00 000 000 000:  Pe
RHOB .G/C3   00 000 000 000:  Density
~Parameter Information Block
#MNEM.UNIT            Value   Description
#---------- ----------------  -----------
PROJECT.             KARJISAN:  
SET  .               SPLICE:  
~Other Information Block
# 
~A       DEPTH           CALI            DTC             GR            LLD           NPHI             PE           RHOB 
# ...
     801.47160         8.2905       172.5563        82.0964         1.5835       0.530191         4.4779         2.0706
     801.62400         8.3252       171.7726        78.9666         1.6386       0.462230         4.5010         2.0879
     801.77640         8.3538       169.2909        73.5311         1.9360       0.440781         4.7935         2.1272
     801.92880         8.6047       164.5593        66.7254         2.4954       0.413723         5.1029         2.1361
     802.08120         8.5901       159.4718        62.7104         3.0769       0.397743         5.1108         2.0962
     802.23360         8.5658       153.4890        60.6739         3.5215       0.401104         5.0492         2.0690
     802.38600         8.4974       150.2905        62.1193         3.5938       0.414888         5.1346         2.0605
     802.53840         8.4468       149.7596        61.7442         3.3683       0.391259         5.2089         2.0409
     802.69080         8.4519       149.8662        60.2119         3.2608       0.410484         5.1098         2.0302
     802.84320         8.4960       151.1986        60.5083         3.2060       0.423743         5.0004         2.0406
     802.99560         8.5593       154.2593        63.6380         2.9677       0.422981         5.1315         2.0457
     803.14800         8.6353       159.2933        69.6189         2.4926       0.477811         5.2943         2.0418
     803.30040         8.6503       165.8166        75.6739         2.0468       0.498148         5.1464         2.0494
     803.45280         8.4979       168.6211        79.8587         1.7845       0.480674         4.6740         2.0559
     803.60520         8.2867       167.0457        80.9267         1.5891       0.450733         4.2098         2.0461
     803.75760         8.0490       165.4449        74.0181         1.5233       0.442076         4.1231         2.0402
     803.91000         7.9474       163.1326        69.1309         1.5052       0.429309         4.2898         2.0457
     804.06240         8.1275       160.1688        70.6533         1.5405       0.434000         4.3924         2.0572
     804.21480         8.3535       157.7449        72.9591         1.6268       0.425606         4.4478         2.0880
     804.36720         8.6133       155.9466        72.9935         1.7401       0.435513         4.5144         2.1267
     804.51960         8.5938       155.3609        69.5926         1.7653       0.444404         4.5466         2.1404
     804.67200         8.6778       155.8831        68.4450         1.7901       0.452771         4.5947         2.1332
     804.82440         8.6808       156.7584        65.4186         1.8143       0.423520         4.7444         2.1265
     804.97680         8.7005       157.0499        67.6241         1.8144       0.431779         4.9012         2.1248
     805.12920         8.6802       156.8490        74.9863         1.8666       0.435267         4.8800         2.1281
     805.28160         8.5872       156.1602        80.0810         1.9297       0.447878         4.8337         2.1338
     805.43400         8.4987       155.1862        77.1884         1.8853       0.436916         4.9440         2.1304
     805.58640         8.6204       155.3108        76.2637         1.9301       0.441027         4.9381         2.1271
     805.73880         8.6688       155.8174        78.0556         1.9177       0.457929         4.6941         2.1369
     805.89120         8.7075       157.0066        78.4598         1.8711       0.486392         4.4771         2.1397
     806.04360         8.5846       158.6821        83.3802         1.8266       0.485791         4.3839         2.1261
     806.19600         8.5262       160.4702        82.2568         1.7843       0.434511         4.3741         2.1106
     806.34840         8.5561       161.3446        78.9844         1.6988       0.475037         4.4399         2.0986
     806.50080         8.3602       161.4061        75.4605         1.6959       0.434739         4.5633         2.0910
     806.65320         8.4449       161.4795        71.3913         1.6894       0.434085         4.6715         2.0852
     806.80560         8.3132       161.1408        69.2573         1.7058       0.438666         4.5723         2.0799
     806.95800         8.2650       161.0023        70.6147         1.7291       0.446135         4.3910         2.0791
     807.11040         8.2373       160.7381        72.5886         1.7742       0.443639         4.4249         2.0854
     807.26280         8.3516       160.3507        75.0634         1.8244       0.427870         4.5352         2.0990
     807.41520         8.4909       159.4408        78.4065         1.8978       0.454751         4.5800         2.1084
     807.56760         8.5567       157.5623        79.9625         1.9006       0.451918         4.5795         2.1094
     807.72000         8.5484       155.5004        78.6584         1.9974       0.412609         4.5356         2.1044
     807.87240         8.6322       154.2807        75.2115         2.1497       0.440527         4.6624         2.0957
     808.02480         8.6008       151.4919        71.8631         2.1740       0.439402         4.8157         2.0933
     808.17720         8.5898       150.9683        69.1332         2.2151       0.424370         4.6934         2.0997
     808.32960         8.6083       151.2884        66.4882         2.2210       0.432201         4.4865         2.1080
     808.48200         8.6306       152.0474        63.4847         2.2648       0.397708         4.3888         2.1010
     808.63440         8.6007       154.3627        62.2036         2.3549       0.406646         4.2910         2.0845
     808.78680         8.5899       154.6241        59.6755         2.5907       0.385619         4.1172         2.0727
     808.93920         8.5943       153.7101        57.8202         2.5915       0.393521         4.0346         2.0634
     809.09160         8.5794       153.7152        62.8171         2.4231       0.412764         4.1211         2.0635
     809.24400         8.6044       154.5894        67.4494         2.3884       0.412055         4.2521         2.0736
     809.39640         8.6177       156.7880        70.2383         2.2840       0.438857         4.3914         2.0849
     809.54880         8.5921       158.4876        75.0011         2.1019       0.427790         4.4669         2.0961
     809.70120         8.5945       160.2690        78.1663         1.8597       0.436082         4.3996         2.0982
     809.85360         8.4782       161.8784        79.3433         1.6667       0.442825         4.2613         2.0928
     810.00600         8.4065       163.2282        78.8010         1.5407       0.434427         4.1660         2.0902
     810.15840         8.4511       165.2753        75.6659         1.5378       0.419645         4.1630         2.0922
     810.31080         8.4510       166.3549        76.8839         1.6050       0.421810         4.1414         2.1045
     810.46320         8.4743       166.7262        75.0041         1.6852       0.437665         4.1150         2.1159
     810.61560         8.4984       166.5605        71.9692         1.6919       0.462185         4.2130         2.1119
     810.76800         8.4960       165.4500        70.8370         1.6667       0.456537         4.2706         2.1075
     810.92040         8.4761       163.5000        72.2478         1.6557       0.463615         4.2008         2.1081
     811.07280         8.5705       159.1309        73.8364         1.6480       0.458939         4.1974         2.1092
     811.22520         8.5898       155.0737        73.7326         1.6458       0.451332         4.2749         2.1146
     811.37760         8.5235       153.9185        72.4049         1.6925       0.450410         4.3260         2.1169
     811.53000         8.5505       154.3139        73.0925         1.7084       0.419313         4.3820         2.1176
