~Version Information Block
VERS .                  2.0:  CWLS LOG ASCII STANDARD - VERSION 2.0
WRAP .                   NO:  One line per depth step
~Well Information Block
#MNEM.UNIT        Data Type   Information
#---------- ----------------  -----------
STRT .M           393.03960:  START DEPTH
STOP .M          1428.59760:  STOP DEPTH
STEP .M             0.15240:  STEP
NULL .              -999.25:  NULL VALUE
COMP .                     :  COMPANY
WELL .                 KJ-05:  WELL
FLD  .                     :  FIELD
LOC  .                     :  LOCATION
CTRY .                     :  COUNTRY
STAT .                     :  STATE
CNTY .                     :  COUNTY
SRVC .                     :  SERVICE COMPANY
DATE .                     :  DATE
API  .                     :  API NUMBER
UWI  .                     :  UNIQUE WELL ID
~Curve Information Block
#MNEM.UNIT         API CODE   Curve Description
#---------- ----------------  -----------------
DEPTH.M      00 000 000 000:  Depth
CALI .IN     00 000 000 000:  Caliper
DTC  .US/FT   00 000 000 000:  WAVE Compressional
GR   .GAPI   00 000 000 000:  Gamma API
LLD  .OHMM   00 000 000 000:  LLD
NPHI .V/V    00 000 000 000:  Neutron Porosity
PE   .B/E    00 000 000 000:  Pe
RHOB .G/C3   00 000 000 000:  Density
~Parameter Information Block
#MNEM.UNIT            Value   Description
#---------- ----------------  -----------
PROJECT.             KARJISAN:  
SET  .               SPLICE:  
~Other Information Block
# 
~A       DEPTH           CALI            DTC             GR            LLD           NPHI             PE           RHOB 
# ...
    1138.42800         9.8558       145.9797        80.8753         2.2871       0.430762         5.5654         2.1762
    1138.58040        10.4459       144.0843        84.9653         2.1849       0.457322         5.3353         2.1938
    1138.73280        10.4724       143.3280        85.0513         2.0993       0.459956         5.0999         2.1860
    1138.88520        10.5740       142.0340        84.7460         2.0763       0.446637         4.8729         2.1777
    1139.03760        10.4467       140.6995        84.7223         2.1219       0.434913         4.7899         2.1750
    1139.19000        10.5261       143.4796        81.6251         2.1466       0.490561         5.0286         2.1657
    1139.34240        10.7846       144.2260        76.6385         2.3028       0.455380         5.2816         2.1845
    1139.49480        10.7106       145.6498        70.7771         2.2896       0.451338         5.3798         2.2464
    1139.64720        10.7362       147.3202        65.2089         2.2583       0.452980         5.5233         2.2785
    1139.79960        11.1033       147.8291        61.5923         2.2252       0.456949         5.7085         2.2383
    1139.95200        11.0046       146.9118        60.4846         2.0622       0.447935         5.8600         2.1903
    1140.10440        11.2458       146.4150        63.5432         2.0915       0.450574         5.9431         2.1829
    1140.25680        11.3616       145.6549        64.9510         2.1099       0.428337         5.8969         2.1985
    1140.40920        11.0747       144.0764        63.8603         2.1068       0.504866         5.7672         2.2078
    1140.56160        10.9695       142.5647        64.1004         2.1527       0.456906         5.6335         2.2077
    1140.71400        10.9662       140.9848        66.8567         2.1909       0.441086         5.5141         2.2218
    1140.86640        10.6684       140.1409        63.8603         2.2079       0.493290         5.4470         2.2387
    1141.01880        10.7839       139.6611        60.7424         2.2647       0.460174         5.4133         2.2417
    1141.17120        10.6823       139.0378        64.4501         2.3110       0.447251         5.3690         2.2495
    1141.32360        10.6362       137.6580        66.6966         2.3130       0.492041         5.3111         2.2565
    1141.47600        10.6025       136.8658        65.8579         2.3673       0.742936         5.2896         2.2572
    1141.62840        10.6142       135.8696        65.6593         2.3753       0.512706         5.4354         2.2528
    1141.78080        10.5447       134.7987        69.6871         2.3932       0.458261         5.6586         2.2410
    1141.93320        10.4384       133.8457        74.3847         2.4664       0.446585         5.7087         2.2354
    1142.08560        10.4449       133.0968        75.3627         2.5217       0.431838         5.5845         2.2418
    1142.23800        10.3812       133.9793        76.0888         2.5886       0.410295         5.4607         2.2570
    1142.39040        10.2311       136.5640        72.6953         2.8696       0.432207         5.4191         2.2758
    1142.54280        10.2346       140.4615        68.8217         2.8163       0.443634         5.3966         2.2848
    1142.69520        10.3436       144.9310        70.9852         2.5509       0.485872         5.3633         2.2550
    1142.84760        10.4847       149.8690        74.7285         2.2950       0.492083         5.3493         2.1905
    1143.00000        10.0436       151.8575        75.2530         2.0124       0.489264         5.2603         2.1390
    1143.15240        10.3148       152.0114        72.4256         1.8549       0.442943         5.1282         2.1186
    1143.30480        10.3657       150.8773        74.1890         1.9510       0.427770         5.1864         2.1187
    1143.45720        10.3871       148.0844        75.4338         2.0114       0.458953         5.3792         2.1358
    1143.60960        10.4934       144.3328        74.0023         2.1449       0.439271         5.4861         2.1770
    1143.76200        10.1910       142.2732        74.0853         2.1483       0.403281         5.5070         2.2156
    1143.91440        10.1592       139.6447        73.3236         2.0509       0.411886         5.5332         2.2077
    1144.06680         9.8729       138.1285        71.1541         2.0665       0.412653         5.5447         2.1822
    1144.21920         9.6679       136.9716        68.2022         2.1955       0.426579         5.4930         2.1999
    1144.37160        10.1359       136.5407        66.6551         2.2852       0.406253         5.5234         2.2430
    1144.52400        10.2973       136.7325        65.9646         2.3434       0.387587         5.6711         2.2437
    1144.67640        10.3479       137.8366        66.2432         2.2761       0.405812         5.6656         2.2041
    1144.82880        10.1766       140.1285        68.9254         2.1444       0.425722         5.4821         2.1705
    1144.98120        10.3396       142.5186        70.0736         2.0866       0.464305         5.3389         2.1546
    1145.13360        10.3288       144.0038        71.0553         2.0762       0.468527         5.2475         2.1473
    1145.28600        10.5806       144.4247        71.8943         2.0733       0.413244         5.1651         2.1440
    1145.43840        10.4982       143.3143        73.7517         2.0693       0.416013         5.1640         2.1459
    1145.59080        10.5768       141.8520        73.9891         2.0548       0.431809         5.2005         2.1495
    1145.74320        10.4756       140.6282        73.1588         2.0500       0.417533         5.1786         2.1504
    1145.89560        10.5673       140.9860        74.1713         2.0588       0.429264         5.1829         2.1489
    1146.04800        10.5573       142.5736        76.0947         2.0437       0.457217         5.2825         2.1419
    1146.20040        10.4805       142.3913        78.0508         2.0575       0.469172         5.3982         2.1355
    1146.35280        10.1770       141.9041        75.6176         2.0957       0.472053         5.4412         2.1361
    1146.50520        10.4131       141.0563        70.1228         2.1392       0.431503         5.4697         2.1590
    1146.65760        10.3622       140.0337        65.6919         2.1738       0.423697         5.4289         2.1789
    1146.81000        10.1704       138.7292        66.5010         2.1896       0.417499         5.3530         2.1989
    1146.96240        10.2296       137.4826        68.6913         2.1442       0.446022         5.2584         2.2132
    1147.11480        10.0497       136.9494        69.5182         2.2006       0.408070         5.2422         2.2138
    1147.26720        10.1728       136.5409        67.3991         2.2035       0.416714         5.3165         2.2073
    1147.41960        10.2122       137.7009        63.6529         2.1504       0.414120         5.4030         2.1959
    1147.57200        10.0928       139.7336        63.8662         2.1191       0.413374         5.4086         2.1745
    1147.72440        10.3402       141.4623        68.2141         2.1161       0.403876         5.3033         2.1616
    1147.87680        10.4798       142.7295        70.8637         2.0244       0.458994         5.2215         2.1652
    1148.02920        10.3973       143.7462        68.7061         2.0282       0.462911         5.2201         2.1614
    1148.18160        10.0748       144.5406        69.4648         2.0001       0.462567         5.1859         2.1486
    1148.33400        10.2756       144.7454        75.6739         1.9346       0.441051         5.1460         2.1455
    1148.48640        10.2362       145.2020        76.2726         1.9178       0.455956         5.1853         2.1477
