~Version Information Block
VERS .                  2.0:  CWLS LOG ASCII STANDARD - VERSION 2.0
WRAP .                   NO:  One line per depth step
~Well Information Block
#MNEM.UNIT        Data Type   Information
#---------- ----------------  -----------
STRT .M           393.03960:  START DEPTH
STOP .M          1428.59760:  STOP DEPTH
STEP .M             0.15240:  STEP
NULL .              -999.25:  NULL VALUE
COMP .                     :  COMPANY
WELL .                 KJ-05:  WELL
FLD  .                     :  FIELD
LOC  .                     :  LOCATION
CTRY .                     :  COUNTRY
STAT .                     :  STATE
CNTY .                     :  COUNTY
SRVC .                     :  SERVICE COMPANY
DATE .                     :  DATE
API  .                     :  API NUMBER
UWI  .                     :  UNIQUE WELL ID
~Curve Information Block
#MNEM.UNIT         API CODE   Curve Description
#---------- ----------------  -----------------
DEPTH.M      00 000 000 000:  Depth
CALI .IN     00 000 000 000:  Caliper
DTC  .US/FT   00 000 000 000:  WAVE Compressional
GR   .GAPI   00 000 000 000:  Gamma API
LLD  .OHMM   00 000 000 000:  LLD
NPHI .V/V    00 000 000 000:  Neutron Porosity
PE   .B/E    00 000 000 000:  Pe
RHOB .G/C3   00 000 000 000:  Density
~Parameter Information Block
#MNEM.UNIT            Value   Description
#---------- ----------------  -----------
PROJECT.             KARJISAN:  
SET  .               SPLICE:  
~Other Information Block
# 
~A       DEPTH           CALI            DTC             GR            LLD           NPHI             PE           RHOB 
# ...
     525.78000         8.6281       149.8963        48.7155         9.5592       0.300854         3.4114         2.0672
     525.93240         8.7681       150.6004        38.7068        10.8515       0.293020         3.3660         2.0713
     526.08480         8.7788       151.8764        32.7259        12.7102       0.289190         3.3409         2.0767
     526.23720         8.8045       153.3690        30.6987        12.7969       0.276270         3.2848         2.0754
     526.38960         8.8445       154.5031        30.1208        11.8141       0.282013         3.3460         2.0688
     526.54200         8.8792       155.2808        31.6175        10.7821       0.293455         3.6213         2.0669
     526.69440         8.8714       155.4005        38.1753        10.5093       0.316658         3.9653         2.0809
     526.84680         8.9140       154.5207        42.7099        11.3527       0.308292         4.4136         2.1209
     526.99920         8.8703       152.6781        43.2611        12.8755       0.303304         4.7061         2.1520
     527.15160         8.8862       148.1074        44.2698        13.7087       0.274373         4.2802         2.1345
     527.30400         8.8353       143.9833        40.4969        13.7971       0.269101         3.4547         2.0987
     527.45640         8.7713       142.5933        40.3072        13.2156       0.285077         2.9562         2.0852
     527.60880         8.7226       142.4751        44.3261        12.3167       0.292423         2.7949         2.0866
     527.76120         8.6685       143.3041        43.9971        11.4280       0.289661         2.8875         2.0805
     527.91360         8.6744       143.5796        45.1293        10.7614       0.293693         3.3153         2.0593
     528.06600         8.6566       143.4974        49.4594         9.8839       0.291372         3.6640         2.0389
     528.21840         8.6997       143.3092        49.3645         9.9875       0.299723         3.5684         2.0551
     528.37080         8.7278       143.4049        45.8880        11.0382       0.291007         3.2957         2.1062
     528.52320         8.7781       143.7008        42.0499        12.1498       0.274240         3.2404         2.1428
     528.67560         8.7777       145.0578        42.3937        12.5436       0.271493         3.4573         2.1274
     528.82800         8.7342       146.4724        48.4606        10.9497       0.289407         3.7189         2.0714
     528.98040         8.6855       146.4371        53.7005         9.3088       0.312153         3.8593         2.0304
     529.13280         8.6517       146.4468        54.6875         8.9562       0.324220         3.7611         2.0422
     529.28520         8.6637       146.7604        53.1581         8.9344       0.318494         3.4968         2.0749
     529.43760         8.6441       146.9657        51.3176         9.6201       0.291083         3.5105         2.0875
     529.59000         8.6135       147.0537        46.3474        10.5249       0.294213         3.7556         2.0773
     529.74240         8.6167       147.1773        44.4476         9.7004       0.307465         3.7798         2.0681
     529.89480         8.6327       147.7218        59.8326         7.8204       0.309663         3.6464         2.0763
     530.04720         8.6785       148.9977        91.7346         6.5015       0.318076         3.5891         2.0905
     530.19960         8.6826       146.9140       115.2165         5.6118       0.338804         3.6960         2.1057
     530.35200         8.7022       146.2511       112.8247         5.6782       0.316741         3.8545         2.1158
     530.50440         8.7102       142.2545        99.4937         5.7336       0.289416         3.9614         2.1720
     530.65680         8.6797       135.2706        96.2573         8.2830       0.248368         4.1123         2.2978
     530.80920         8.6174       131.2667       100.5784         9.5145       0.254463         4.2089         2.3328
     530.96160         8.6247       129.9717       100.3769         9.4364       0.281292         4.1468         2.2095
     531.11400         8.6734       133.5683        94.5294         7.6899       0.321417         3.9040         2.0718
     531.26640         8.7056       141.9246        87.7631         6.6737       0.319282         3.4839         2.0124
     531.41880         8.7145       147.9173        88.2551         7.0133       0.302519         3.0764         2.0067
     531.57120         8.6673       151.2372        92.1762         6.7399       0.329039         2.8183         2.0150
     531.72360         8.7134       152.4598        93.7351         6.9618       0.327906         2.7554         2.0218
     531.87600         8.7830       152.9598        88.4596         8.2224       0.307784         2.8551         2.0304
     532.02840         8.8835       153.5084        71.0940         9.8197       0.321816         2.9302         2.0465
     532.18080         8.9793       153.4490        56.1985        11.1987       0.281129         2.8471         2.0632
     532.33320         8.9396       152.1892        60.2915        10.2542       0.289228         2.7372         2.0751
     532.48560         8.9013       150.9413        78.6872         8.0338       0.307782         2.8080         2.0822
     532.63800         8.8444       149.2792        99.4285         6.4798       0.363700         3.0373         2.0850
     532.79040         8.6469       148.3015       115.0090         6.1655       0.346260         3.2098         2.0787
     532.94280         8.6622       149.7595       113.2515         6.6576       0.346931         3.1498         2.0479
     533.09520         8.6537       150.4141        99.9738         7.0968       0.341220         2.9901         2.0125
     533.24760         8.7363       150.3164        96.3254         7.0309       0.320030         2.9635         2.0180
     533.40000         8.8356       149.3956       106.3489         6.5079       0.335716         3.0460         2.0527
     533.55240         8.8189       148.6339       113.9510         6.2326       0.337040         3.0838         2.0798
     533.70480         8.7993       149.9636       107.8634         6.5420       0.335884         3.0288         2.0781
     533.85720         8.8860       147.5048        97.7125         7.0818       0.325437         3.0550         2.0525
     534.00960         8.6939       146.5997        91.2515         7.8478       0.326407         3.2139         2.0348
     534.16200         8.7707       147.5624        83.9398         8.7608       0.328240         3.1704         2.0413
     534.31440         8.8318       145.3247        74.4321         8.6738       0.290758         2.9144         2.0774
     534.46680         8.8855       146.3838        66.0120         8.2162       0.276489         2.8613         2.1216
     534.61920         8.8922       146.7563        67.3131         7.8085       0.285784         2.9979         2.1371
     534.77160         8.7994       147.3156        71.0771         7.7730       0.326275         3.0737         2.1209
     534.92400         8.7907       148.5743        66.0802         8.3123       0.308235         3.1036         2.0934
     535.07640         8.9097       150.4252        62.3606         8.5247       0.322082         3.1590         2.0774
     535.22880         8.9509       151.5141        69.2247         8.0869       0.304022         3.2553         2.0759
     535.38120         8.9635       151.8759        78.4835         7.6766       0.301187         3.2542         2.0708
     535.53360         8.9305       152.9156        74.8470         7.3224       0.341151         3.0244         2.0490
     535.68600         8.8703       154.4648        61.0210         7.4634       0.346780         2.8076         2.0221
     535.83840         8.9133       155.4599        52.9862         8.3557       0.336227         2.8401         2.0033
