~Version Information Block
VERS .                  2.0:  CWLS LOG ASCII STANDARD - VERSION 2.0
WRAP .                   NO:  One line per depth step
~Well Information Block
#MNEM.UNIT        Data Type   Information
#---------- ----------------  -----------
STRT .M           393.03960:  START DEPTH
STOP .M          1428.59760:  STOP DEPTH
STEP .M             0.15240:  STEP
NULL .              -999.25:  NULL VALUE
COMP .                     :  COMPANY
WELL .                 KJ-05:  WELL
FLD  .                     :  FIELD
LOC  .                     :  LOCATION
CTRY .                     :  COUNTRY
STAT .                     :  STATE
CNTY .                     :  COUNTY
SRVC .                     :  SERVICE COMPANY
DATE .                     :  DATE
API  .                     :  API NUMBER
UWI  .                     :  UNIQUE WELL ID
~Curve Information Block
#MNEM.UNIT         API CODE   Curve Description
#---------- ----------------  -----------------
DEPTH.M      00 000 000 000:  Depth
CALI .IN     00 000 000 000:  Caliper
DTC  .US/FT   00 000 000 000:  WAVE Compressional
GR   .GAPI   00 000 000 000:  Gamma API
LLD  .OHMM   00 000 000 000:  LLD
NPHI .V/V    00 000 000 000:  Neutron Porosity
PE   .B/E    00 000 000 000:  Pe
RHOB .G/C3   00 000 000 000:  Density
~Parameter Information Block
#MNEM.UNIT            Value   Description
#---------- ----------------  -----------
PROJECT.             KARJISAN:  
SET  .               SPLICE:  
~Other Information Block
# 
~A       DEPTH           CALI            DTC             GR            LLD           NPHI             PE           RHOB 
# ...
     995.47680         8.3401       138.7182        76.9483         3.4035       0.509005         4.3385         2.1984
     995.62920         8.4829       134.0856        76.4593         3.8117       0.474127         5.1364         2.2439
     995.78160         8.5537       128.2697        82.3814         4.0204       0.441729         5.6893         2.3007
     995.93400         8.6574       122.8608        86.2852         4.2501       0.421658         5.9631         2.3708
     996.08640         8.5235       118.6585        85.7926         4.5616       0.402458         5.9419         2.4246
     996.23880         8.5133       116.5616        85.5426         4.8697       0.350545         5.6650         2.4518
     996.39120         8.5562       116.1265        91.3674         5.2943       0.339749         5.4098         2.4430
     996.54360         8.5355       117.3165        95.5430         5.4026       0.345523         5.2774         2.4213
     996.69600         8.5925       120.6754        91.9035         4.4404       0.360070         5.2315         2.4085
     996.84840         8.4349       126.5496        90.2201         3.6662       0.399434         5.2037         2.3717
     997.00080         8.3587       131.1677        91.8057         3.1784       0.444761         5.1578         2.3202
     997.15320         8.3499       135.5623        87.9913         2.7884       0.476856         5.1022         2.2912
     997.30560         8.2594       139.3078        82.8492         2.6902       0.479896         4.9899         2.2696
     997.45800         8.1141       142.1390        84.7638         2.6097       0.478970         4.8961         2.2482
     997.61040         8.0713       143.6434        85.8189         2.3914       0.453300         4.9813         2.2273
     997.76280         8.1585       143.7905        85.9463         2.2445       0.433227         5.1873         2.2028
     997.91520         8.1947       143.1170        86.8532         2.1500       0.424231         5.3708         2.1970
     998.06760         8.2888       141.6315        84.0288         2.1504       0.461347         5.5010         2.2159
     998.22000         8.3740       139.2037        82.9944         2.2899       0.463634         5.6149         2.2440
     998.37240         8.4728       137.5535        84.7845         2.4056       0.435769         5.7257         2.2696
     998.52480         8.4824       136.4124        81.8919         2.5370       0.448266         5.7906         2.2845
     998.67720         8.5664       136.5039        80.3359         2.5690       0.444322         5.8202         2.2896
     998.82960         8.4407       137.4922        85.7596         2.3100       0.461339         5.8247         2.2847
     998.98200         8.4187       138.4267        92.8134         2.2196       0.455121         5.7414         2.2672
     999.13440         8.3794       140.0662        93.7262         2.1086       0.455978         5.5653         2.2477
     999.28680         8.3607       142.2109        89.9474         2.0368       0.425704         5.4206         2.2355
     999.43920         8.4283       144.0493        88.9694         1.9870       0.450153         5.4026         2.2274
     999.59160         8.5000       146.1264        88.1869         1.9361       0.464629         5.4296         2.2187
     999.74400         8.5930       147.6853        88.6167         1.7475       0.459175         5.3758         2.2003
     999.89640         8.8005       149.1468        90.9877         1.5492       0.440249         5.2996         2.1600
    1000.04880         8.8759       150.2585        87.9439         1.4701       0.463210         5.2483         2.1228
    1000.20120         8.2634       150.5242        83.0655         1.4192       0.449457         5.0756         2.1161
    1000.35360         8.2122       148.9741        84.1621         1.4656       0.439824         4.9348         2.1314
    1000.50600         8.2656       145.7697        81.6874         1.4684       0.453811         5.0737         2.1541
    1000.65840         8.3581       141.1672        72.4286         1.6450       0.449636         5.2295         2.1736
    1000.81080         8.2833       134.9094        66.4418         1.9868       0.399934         5.3743         2.2511
    1000.96320         8.3298       123.5262        59.2902         2.9945       0.384360         5.8290         2.4506
    1001.11560         8.4168       116.8345        46.2763         4.3564       0.331899         6.0942         2.6102
    1001.26800         8.2524       116.9112        40.5325         5.9726       0.295697         5.5653         2.5418
    1001.42040         8.3436       122.7083        44.6343         5.3005       0.313244         4.9132         2.4014
    1001.57280         8.3715       123.2291        45.7843         3.7357       0.335466         4.6268         2.3466
    1001.72520         8.4497       119.2432        42.9924         3.3470       0.339271         4.2327         2.2815
    1001.87760         8.4397       118.6448        42.8057         3.1413       0.321137         3.7975         2.2039
    1002.03000         8.4562       118.7162        46.0182         3.0337       0.329462         3.7261         2.1798
    1002.18240         8.4523       119.5200        47.4512         3.1605       0.345173         3.8949         2.1817
    1002.33480         8.4696       120.2399        46.1483         3.2956       0.326655         3.9903         2.1805
    1002.48720         8.4844       121.1241        46.7614         3.1620       0.337930         3.9478         2.1838
    1002.63960         8.5749       122.8036        48.9980         3.0536       0.350746         3.8854         2.1939
    1002.79200         8.5596       126.1835        52.5861         2.7844       0.392523         3.8674         2.1949
    1002.94440         8.5470       131.0843        53.0485         2.4917       0.405662         3.9325         2.1868
    1003.09680         8.5990       137.5081        52.3816         2.3253       0.434397         4.1328         2.1798
    1003.24920         8.6572       142.2713        55.9293         2.1215       0.465986         4.3540         2.1724
    1003.40160         8.7356       142.6096        57.5297         2.0851       0.441825         4.4169         2.1589
    1003.55400         8.7534       140.8348        56.7710         2.1519       0.450040         4.4786         2.1569
    1003.70640         8.7675       140.0354        54.0532         2.1860       0.449578         4.6712         2.1684
    1003.85880         8.7327       139.8451        50.4344         2.1051       0.482437         4.7336         2.1694
    1004.01120         8.5896       139.8878        50.4196         2.0474       0.486454         4.5937         2.1552
    1004.16360         8.5247       139.4795        55.1735         1.9608       0.469519         4.5355         2.1399
    1004.31600         8.4606       138.3783        58.6708         1.9714       0.455464         4.7201         2.1506
    1004.46840         8.4557       136.4009        54.7912         2.0446       0.435057         4.9807         2.1900
    1004.62080         8.4668       133.1588        51.3206         2.3740       0.428065         5.1182         2.2406
    1004.77320         8.4918       130.2797        51.9430         2.7632       0.403979         5.1635         2.2854
    1004.92560         8.4738       127.3270        51.7938         3.1393       0.398867         4.9390         2.2708
    1005.07800         8.3678       125.0728        50.9047         3.4061       0.359343         4.3521         2.1998
    1005.23040         8.3504       124.9500        48.0042         3.3048       0.337115         3.9373         2.1516
    1005.38280         8.3625       126.4125        40.9326         3.0830       0.347683         3.8593         2.1428
    1005.53520         8.3867       127.7633        35.3785         3.0729       0.338048         3.7192         2.1483
