~Version Information Block
VERS .                  2.0:  CWLS LOG ASCII STANDARD - VERSION 2.0
WRAP .                   NO:  One line per depth step
~Well Information Block
#MNEM.UNIT        Data Type   Information
#---------- ----------------  -----------
STRT .M           393.03960:  START DEPTH
STOP .M          1428.59760:  STOP DEPTH
STEP .M             0.15240:  STEP
NULL .              -999.25:  NULL VALUE
COMP .                     :  COMPANY
WELL .                 KJ-05:  WELL
FLD  .                     :  FIELD
LOC  .                     :  LOCATION
CTRY .                     :  COUNTRY
STAT .                     :  STATE
CNTY .                     :  COUNTY
SRVC .                     :  SERVICE COMPANY
DATE .                     :  DATE
API  .                     :  API NUMBER
UWI  .                     :  UNIQUE WELL ID
~Curve Information Block
#MNEM.UNIT         API CODE   Curve Description
#---------- ----------------  -----------------
DEPTH.M      00 000 000 000:  Depth
CALI .IN     00 000 000 000:  Caliper
DTC  .US/FT   00 000 000 000:  WAVE Compressional
GR   .GAPI   00 000 000 000:  Gamma API
LLD  .OHMM   00 000 000 000:  LLD
NPHI .V/V    00 000 000 000:  Neutron Porosity
PE   .B/E    00 000 000 000:  Pe
RHOB .G/C3   00 000 000 000:  Density
~Parameter Information Block
#MNEM.UNIT            Value   Description
#---------- ----------------  -----------
PROJECT.             KARJISAN:  
SET  .               SPLICE:  
~Other Information Block
# 
~A       DEPTH           CALI            DTC             GR            LLD           NPHI             PE           RHOB 
# ...
     658.52040         9.1790       120.0640       115.4062         4.3825       0.302533         3.0783         2.2575
     658.67280         9.1929       120.9306       114.2948         4.4530       0.303998         3.0782         2.2520
     658.82520         9.0215       122.5835       111.5385         4.5169       0.302801         3.1326         2.2422
     658.97760         9.0009       124.4967       112.8099         4.4870       0.288636         3.3141         2.2337
     659.13000         8.9903       126.1423       114.2394         4.3966       0.293644         3.5500         2.2319
     659.28240         8.9829       127.2975       109.4292         4.2857       0.307711         3.6931         2.2483
     659.43480         8.9284       128.0015       109.5231         4.2370       0.297545         3.6669         2.2568
     659.58720         8.8159       128.5143       110.5100         4.3052       0.308889         3.4883         2.2277
     659.73960         8.7247       128.7433       107.6115         4.2719       0.301707         3.3471         2.2010
     659.89200         8.9513       128.8899       108.9333         4.2580       0.316958         3.4248         2.2099
     660.04440         8.9302       128.9088       113.3612         4.3080       0.315173         3.6267         2.2261
     660.19680         8.7724       129.3504       115.0742         4.3918       0.312194         3.8062         2.2401
     660.34920         8.8311       129.8553       111.3814         4.5537       0.295085         3.8931         2.2480
     660.50160         8.7149       130.9764       108.7436         4.4858       0.298303         3.8301         2.2435
     660.65400         8.7625       132.7199       110.2996         4.3157       0.302223         3.7780         2.2470
     660.80640         8.8605       134.7473       109.8313         4.2820       0.307617         3.8672         2.2564
     660.95880         8.9158       137.1554       107.7567         4.2697       0.328720         3.8974         2.2519
     661.11120         9.0435       139.1824       110.6879         4.3120       0.336297         3.9109         2.2222
     661.26360         8.9490       140.5770       112.3090         4.2810       0.335156         4.1511         2.1821
     661.41600         8.9144       142.4394       108.4502         4.2022       0.342819         4.4369         2.1785
     661.56840         8.9326       143.6493       108.3998         4.1272       0.321966         4.3806         2.2032
     661.72080         9.0724       144.0801       110.7205         4.0935       0.327722         3.9943         2.2089
     661.87320         9.0872       141.1623       108.8118         4.0648       0.319842         3.7299         2.2035
     662.02560         9.0725       136.7972       104.8374         4.1155       0.319584         3.7117         2.2054
     662.17800         9.0107       133.4874       102.1048         4.1780       0.320035         3.6600         2.2139
     662.33040         9.0218       130.5762       102.5553         4.2294       0.316158         3.6521         2.2271
     662.48280         8.9924       128.3925       106.5208         4.3633       0.305079         3.8756         2.2344
     662.63520         8.9928       127.1815       107.2351         4.4289       0.326330         4.0704         2.2353
     662.78760         9.0138       127.5501       104.5943         4.3855       0.324276         4.0033         2.2391
     662.94000         8.9464       128.5314       110.3618         4.3269       0.297393         3.8900         2.2411
     663.09240         8.7181       130.0453       126.8967         4.2922       0.295470         3.8842         2.2292
     663.24480         8.7020       131.4784       135.2664         4.2648       0.314641         3.8418         2.2042
     663.39720         8.6814       132.8018       127.5369         4.4203       0.319452         3.7553         2.1831
     663.54960         8.6880       134.2066       122.1221         4.5345       0.324210         3.6820         2.1687
     663.70200         8.6674       135.8280       122.1517         4.6451       0.328569         3.5269         2.1612
     663.85440         8.6926       137.2204       117.9135         4.6355       0.315904         3.3503         2.1588
     664.00680         8.6790       138.3637       116.3190         4.5580       0.325000         3.2584         2.1510
     664.15920         8.6965       139.4819       117.1844         4.2992       0.343164         3.2577         2.1583
     664.31160         8.7279       140.3931       114.6949         4.3249       0.348036         3.3765         2.1782
     664.46400         8.6996       141.2101       109.2652         4.4544       0.337872         3.4752         2.1567
     664.61640         8.6411       141.2826        98.4386         4.6667       0.330897         3.4439         2.1035
     664.76880         8.6724       141.1279        86.0263         4.9632       0.327336         3.4023         2.0942
     664.92120         8.7261       140.8311        77.3217         5.2168       0.321123         3.5024         2.1189
     665.07360         8.7637       140.4111        77.1854         5.2905       0.327581         3.7850         2.1152
     665.22600         8.6845       141.0141        86.0589         5.2212       0.322327         4.0398         2.1062
     665.37840         8.6560       142.7209        95.3503         5.0496       0.328980         3.9900         2.1167
     665.53080         8.6222       144.6503        96.6603         4.8780       0.312181         3.6531         2.1102
     665.68320         8.5953       146.5494        91.3711         4.7907       0.330248         3.3090         2.0853
     665.83560         8.5712       148.0720        84.9583         4.8260       0.323123         3.1994         2.0737
     665.98800         8.6162       149.2048        85.0233         4.9979       0.325312         3.2758         2.0649
     666.14040         8.5756       149.9223        84.9527         5.0055       0.333674         3.3150         2.0560
     666.29280         8.6746       150.3987        85.3269         5.0499       0.324103         3.3253         2.0720
     666.44520         8.6906       150.0238        87.8194         5.0286       0.327637         3.5435         2.0831
     666.59760         8.6487       149.5442        88.6404         5.0354       0.321593         3.8332         2.0823
     666.75000         8.6337       148.7944        91.2900         5.0049       0.337422         3.7843         2.0949
     666.90240         8.6487       148.0612        97.7243         4.8814       0.337382         3.4874         2.1133
     667.05480         8.7129       147.5822       100.9044         4.9629       0.338559         3.3041         2.1259
     667.20720         8.7748       147.8315        97.8458         5.1043       0.321398         3.2486         2.1123
     667.35960         8.6893       149.5529        90.7713         5.2756       0.332647         3.1531         2.0974
     667.51200         8.6999       150.2297        85.1194         5.3132       0.338691         3.0479         2.0889
     667.66440         8.7098       150.4628        79.4557         5.0922       0.327743         3.0899         2.0647
     667.81680         8.6389       150.1312        75.2441         5.1341       0.312881         3.2669         2.0718
     667.96920         8.6745       149.9632        75.7421         5.1478       0.327207         3.4138         2.0938
     668.12160         8.6886       151.2091        74.4854         5.3516       0.342168         3.5040         2.0831
     668.27400         8.7000       151.5829        70.8667         5.4894       0.346808         3.6125         2.0506
     668.42640         8.7253       152.6148        69.0143         5.3598       0.334375         3.6549         2.0253
     668.57880         8.7335       154.1051        70.8933         5.8778       0.315335         3.5641         2.0292
