~Version Information Block
VERS .                  2.0:  CWLS LOG ASCII STANDARD - VERSION 2.0
WRAP .                   NO:  One line per depth step
~Well Information Block
#MNEM.UNIT        Data Type   Information
#---------- ----------------  -----------
STRT .M           393.03960:  START DEPTH
STOP .M          1428.59760:  STOP DEPTH
STEP .M             0.15240:  STEP
NULL .              -999.25:  NULL VALUE
COMP .                     :  COMPANY
WELL .                 KJ-05:  WELL
FLD  .                     :  FIELD
LOC  .                     :  LOCATION
CTRY .                     :  COUNTRY
STAT .                     :  STATE
CNTY .                     :  COUNTY
SRVC .                     :  SERVICE COMPANY
DATE .                     :  DATE
API  .                     :  API NUMBER
UWI  .                     :  UNIQUE WELL ID
~Curve Information Block
#MNEM.UNIT         API CODE   Curve Description
#---------- ----------------  -----------------
DEPTH.M      00 000 000 000:  Depth
CALI .IN     00 000 000 000:  Caliper
DTC  .US/FT   00 000 000 000:  WAVE Compressional
GR   .GAPI   00 000 000 000:  Gamma API
LLD  .OHMM   00 000 000 000:  LLD
NPHI .V/V    00 000 000 000:  Neutron Porosity
PE   .B/E    00 000 000 000:  Pe
RHOB .G/C3   00 000 000 000:  Density
~Parameter Information Block
#MNEM.UNIT            Value   Description
#---------- ----------------  -----------
PROJECT.             KARJISAN:  
SET  .               SPLICE:  
~Other Information Block
# 
~A       DEPTH           CALI            DTC             GR            LLD           NPHI             PE           RHOB 
# ...
    1066.95240         9.1929       148.9492        87.0785         2.1106       0.483656         5.1835         2.1304
    1067.10480         9.2983       149.7387        85.7952         2.0931       0.458801         5.0449         2.1353
    1067.25720         9.1960       150.5777        87.1329         2.0994       0.477532         4.9573         2.1392
    1067.40960         9.1111       151.6551        89.3635         2.1681       0.468084         4.9708         2.1389
    1067.56200         9.2348       154.0932        92.4805         2.1640       0.488326         4.9673         2.1427
    1067.71440         9.1941       155.8031        81.8790         2.0417       0.479647         4.9404         2.1412
    1067.86680         9.2922       155.2335        80.8356         1.8966       0.482015         5.0128         2.1172
    1068.01920         9.2016       152.5449        81.2962         1.7363       0.509055         5.1855         2.0972
    1068.17160         9.1524       142.8563        84.4348         1.6920       0.494605         5.2933         2.0960
    1068.32400         9.2849       135.9003        84.9031         1.8468       0.420258         5.3403         2.1223
    1068.47640         9.1707       134.8647        79.0526         3.3030       0.404720         5.6129         2.2403
    1068.62880         9.2829       134.7883        67.6559         3.8813       0.415301         6.1883         2.3911
    1068.78120         9.0670       136.4785        63.4021         4.3555       0.399077         6.6209         2.3667
    1068.93360         9.2838       141.4390        66.7474         3.7946       0.440403         6.5034         2.1800
    1069.08600         9.5809       147.5173        73.4423         2.5178       0.479713         6.0241         2.0465
    1069.23840         9.4383       151.1054        74.2048         1.8418       0.483787         5.6986         2.0301
    1069.39080         9.5115       152.5970        75.4664         1.7114       0.468376         5.6844         2.0560
    1069.54320         9.6191       152.8054        73.7889         1.7186       0.508559         5.7237         2.0800
    1069.69560         9.5850       152.8516        74.2157         1.7986       0.511215         5.8654         2.0883
    1069.84800         9.3846       152.9948        74.7551         1.8495       0.459949         6.2748         2.0624
    1070.00040         9.2121       153.0614        71.9905         1.8585       0.499834         6.4735         2.0348
    1070.15280         9.2877       153.3134        71.9795         1.8312       0.453021         6.0515         2.0641
    1070.30520         9.6473       153.4339        68.7533         1.8082       0.449748         5.4800         2.1132
    1070.45760         9.4616       153.0213        64.0036         1.7858       0.432319         5.1788         2.1241
    1070.61000         9.6202       152.0240        63.9048         1.7364       0.451509         5.0726         2.1139
    1070.76240         9.0352       150.6770        71.2460         1.7765       0.432093         5.1653         2.1024
    1070.91480         8.6594       148.7480        80.5315         1.9646       0.448992         5.3031         2.1016
    1071.06720         8.7227       146.9400        83.9517         2.0950       0.439910         5.2720         2.1099
    1071.21960         8.5395       145.0175        81.0472         2.3647       0.425071         5.2289         2.1099
    1071.37200         8.8176       143.3790        76.4297         2.6132       0.419765         5.3447         2.1145
    1071.52440         9.0190       141.6962        75.1019         2.7434       0.425749         5.4949         2.1269
    1071.67680         8.8876       140.6057        76.2696         2.8214       0.437005         5.5068         2.1287
    1071.82920         8.8197       140.7886        77.4729         2.7369       0.479118         5.4773         2.1293
    1071.98160         9.0563       141.7572        78.0627         2.5530       0.498180         5.5365         2.1363
    1072.13400         9.2692       142.8567        77.9432         2.2420       0.473857         5.6249         2.1363
    1072.28640         9.1381       143.7111        76.9501         2.1202       0.540125         5.6796         2.1312
    1072.43880         8.8651       145.1171        80.6505         2.0421       0.569671         5.6073         2.1367
    1072.59120         9.1371       147.1414        85.2542         2.0829       0.529258         5.3963         2.1467
    1072.74360         9.1107       148.2882        85.9374         2.1278       0.500822         5.2759         2.1411
    1072.89600         8.8793       148.4522        84.2303         2.1198       0.500733         5.3317         2.1232
    1073.04840         8.7072       146.9655        81.1895         2.2565       0.486522         5.4444         2.1130
    1073.20080         8.8376       144.6353        77.7841         2.6935       0.493334         5.6263         2.1440
    1073.35320         9.2577       142.4366        71.3913         3.3312       0.453446         5.9211         2.2404
    1073.50560         9.1479       141.0604        65.5971         3.5634       0.467085         6.1430         2.3244
    1073.65800         8.9449       139.9367        65.0606         3.2431       0.463923         6.0387         2.2929
    1073.81040         8.8106       138.8224        67.4524         2.6735       0.470953         5.6844         2.1993
    1073.96280         8.7858       137.5676        70.6325         2.5270       0.434464         5.4331         2.1670
    1074.11520         8.7963       136.5526        67.5146         2.7984       0.403026         5.4659         2.2155
    1074.26760         9.0195       135.2842        65.0992         2.9187       0.397218         5.5919         2.2556
    1074.42000         8.9785       134.9594        71.6372         3.0861       0.407260         5.5097         2.2203
    1074.57240         8.9931       136.2624        76.2726         2.8453       0.435235         5.2728         2.1682
    1074.72480         9.0255       139.6750        75.6294         2.3897       0.458508         5.1543         2.1479
    1074.87720         9.0131       143.9485        80.8901         2.2108       0.508997         5.1985         2.1324
    1075.02960         9.0294       146.3568        87.7335         2.0411       0.523785         5.3685         2.1156
    1075.18200         9.3731       147.7647        80.8842         2.0478       0.482769         5.5677         2.0989
    1075.33440         9.7760       147.7738        72.4612         2.3002       0.477516         5.5671         2.0874
    1075.48680         8.9238       146.8693        79.0378         2.4654       0.436935         5.3174         2.0894
    1075.63920         8.8587       145.5984        85.8811         2.5361       0.443024         5.0042         2.1038
    1075.79160         8.8858       144.2871        83.8835         2.4864       0.471933         4.8709         2.1280
    1075.94400         9.0689       143.5900        82.1912         2.3751       0.489510         4.9997         2.1432
    1076.09640         9.2038       144.2470        80.8694         2.2498       0.499157         5.1765         2.1403
    1076.24880         9.1568       145.5530        80.8990         2.1704       0.548542         5.2165         2.1332
    1076.40120         9.2042       146.2601        83.9724         2.0990       0.559393         5.1181         2.1276
    1076.55360         9.1022       145.7198        84.3785         1.9621       0.503573         5.0520         2.1218
    1076.70600         9.2090       143.4596        82.7366         1.9990       0.455097         5.1701         2.1245
    1076.85840         9.2089       140.6518        78.9696         2.3741       0.433669         5.3618         2.1585
    1077.01080         9.2666       138.0787        74.5595         3.2076       0.460869         5.5656         2.2385
