~Version Information Block
VERS .                  2.0:  CWLS LOG ASCII STANDARD - VERSION 2.0
WRAP .                   NO:  One line per depth step
~Well Information Block
#MNEM.UNIT        Data Type   Information
#---------- ----------------  -----------
STRT .M           393.03960:  START DEPTH
STOP .M          1428.59760:  STOP DEPTH
STEP .M             0.15240:  STEP
NULL .              -999.25:  NULL VALUE
COMP .                     :  COMPANY
WELL .                 KJ-05:  WELL
FLD  .                     :  FIELD
LOC  .                     :  LOCATION
CTRY .                     :  COUNTRY
STAT .                     :  STATE
CNTY .                     :  COUNTY
SRVC .                     :  SERVICE COMPANY
DATE .                     :  DATE
API  .                     :  API NUMBER
UWI  .                     :  UNIQUE WELL ID
~Curve Information Block
#MNEM.UNIT         API CODE   Curve Description
#---------- ----------------  -----------------
DEPTH.M      00 000 000 000:  Depth
CALI .IN     00 000 000 000:  Caliper
DTC  .US/FT   00 000 000 000:  WAVE Compressional
GR   .GAPI   00 000 000 000:  Gamma API
LLD  .OHMM   00 000 000 000:  LLD
NPHI .V/V    00 000 000 000:  Neutron Porosity
PE   .B/E    00 000 000 000:  Pe
RHOB .G/C3   00 000 000 000:  Density
~Parameter Information Block
#MNEM.UNIT            Value   Description
#---------- ----------------  -----------
PROJECT.             KARJISAN:  
SET  .               SPLICE:  
~Other Information Block
# 
~A       DEPTH           CALI            DTC             GR            LLD           NPHI             PE           RHOB 
# ...
    1403.90880         9.0054        88.2059      -999.2500         6.6164       0.361761         5.9642         2.6122
    1404.06120         8.9629        88.9888      -999.2500         6.4025       0.364434         5.7624         2.5490
    1404.21360         8.9517        88.7127      -999.2500         5.9416       0.353063         5.7108         2.5658
    1404.36600         8.9781        89.5977      -999.2500         6.2534       0.366950         5.7874         2.6129
    1404.51840         9.0206        89.8655      -999.2500         6.5252       0.360272         5.7663         2.6443
    1404.67080         8.9783        89.3338      -999.2500         6.5986       0.379536         5.6742         2.6499
    1404.82320         9.0354        90.0148      -999.2500         6.5220       0.376846         5.6801         2.6236
    1404.97560         9.0460        90.8520      -999.2500         6.3645       0.391135         5.8192         2.5754
    1405.12800         9.0784        91.6133      -999.2500         6.2712       0.389447         5.9642         2.5464
    1405.28040         9.1545        91.9509      -999.2500         6.0772       0.391580         6.0062         2.5487
    1405.43280         9.0217        91.8743      -999.2500         6.0726       0.369889         5.9536         2.5652
    1405.58520         9.0454        91.9307      -999.2500         6.4912       0.374828         5.8830         2.6079
    1405.73760         9.0451        91.9752      -999.2500         6.4621       0.365797         5.8086         2.6314
    1405.89000         9.0017        91.7208      -999.2500         6.6901       0.362723         5.6606         2.6021
    1406.04240         8.9286        91.3244      -999.2500         6.9579       0.373959         5.6285         2.6174
    1406.19480         8.9160        90.7442      -999.2500         7.3315       0.369376         5.8721         2.7126
    1406.34720         8.9764        90.5710      -999.2500         7.6930       0.363020         6.0658         2.7922
    1406.49960         9.0934        90.8526      -999.2500         7.1189       0.366070         5.9780         2.7812
    1406.65200         9.1651        91.3374      -999.2500         6.5364       0.364021         5.7320         2.6704
    1406.80440         9.0991        92.4123      -999.2500         6.0744       0.378593         5.5481         2.5454
    1406.95680         9.0130        93.8790      -999.2500         5.6189       0.376408         5.5114         2.4997
    1407.10920         9.0338        95.4841      -999.2500         6.7460       0.369595         5.4915         2.5594
    1407.26160         9.0821        97.0236      -999.2500         8.9059       0.364467         5.6580         2.7395
    1407.41400         9.3216      -999.2500      -999.2500         6.0372       0.368374         6.1537         2.8792
    1407.56640         9.5459      -999.2500      -999.2500         4.3873       0.371007         6.4191         2.7428
    1407.71880         9.7973      -999.2500      -999.2500         3.5597       0.395078         6.3462         2.6027
    1407.87120         9.3428      -999.2500      -999.2500         2.8997       0.400337         5.9317         2.3019
    1408.02360         9.2284      -999.2500      -999.2500         2.8566       0.386713         5.6355         2.3183
    1408.17600         9.1590      -999.2500      -999.2500         3.2622       0.410904         5.2322         2.3786
    1408.32840         9.0985      -999.2500      -999.2500         4.7821       0.408222         5.1008         2.4980
    1408.48080         8.9781      -999.2500      -999.2500         5.2725       0.374419         5.4813         2.6726
    1408.63320         8.9415      -999.2500      -999.2500         5.3534       0.360160         5.7626         2.6857
    1408.78560         9.0785      -999.2500      -999.2500         5.7248       0.387853         5.4756         2.5796
    1408.93800         9.0300      -999.2500      -999.2500         4.8134       0.386746         5.3649         2.6425
    1409.09040         8.9620      -999.2500      -999.2500         3.7023       0.379253         5.8137         2.7115
    1409.24280         9.0752      -999.2500      -999.2500         3.6121       0.385143         6.1042         2.5570
    1409.39520         9.1330      -999.2500      -999.2500         4.2831       0.394221         6.0601         2.4953
    1409.54760         9.2173      -999.2500      -999.2500         4.1308       0.374560         6.0942         2.6888
    1409.70000         9.0265      -999.2500      -999.2500         4.3666       0.368409         5.9208         2.7571
    1409.85240         9.0062      -999.2500      -999.2500         4.3507       0.404565         5.1993         2.5789
    1410.00480         9.0492      -999.2500      -999.2500         3.5127       0.406320         4.5334         2.4411
    1410.15720         9.0473      -999.2500      -999.2500         4.0057       0.376306         4.5893         2.5050
    1410.30960         9.0249      -999.2500      -999.2500         5.8489       0.368456         5.3620         2.7409
    1410.46200         9.0072      -999.2500      -999.2500         5.7936       0.366257         6.1757         2.9259
    1410.61440         9.0131      -999.2500      -999.2500         5.7456       0.360144         6.1992         2.8177
    1410.76680         8.9253      -999.2500      -999.2500         4.8634       0.379051         5.6260         2.6015
    1410.91920         8.8640      -999.2500      -999.2500         3.4937       0.405662         5.2959         2.5182
    1411.07160         9.1158      -999.2500      -999.2500         3.7859       0.391297         5.4221         2.4311
    1411.22400         9.1934      -999.2500      -999.2500         4.8113       0.370902         5.9107         2.3935
    1411.37640         9.2821      -999.2500      -999.2500         4.8609       0.360695         6.5528         2.5170
    1411.52880         9.3287      -999.2500      -999.2500         5.4536       0.351431         6.5720         2.5633
    1411.68120         9.1406      -999.2500      -999.2500         5.0401       0.395844         5.9028         2.4778
    1411.83360         8.9793      -999.2500      -999.2500         3.7347       0.424695         5.4204         2.4027
    1411.98600         9.0799      -999.2500      -999.2500         4.0010       0.423390         5.3765         2.3780
    1412.13840         9.0793      -999.2500      -999.2500         4.5144       0.401049         5.5189         2.4374
    1412.29080         9.0701      -999.2500      -999.2500         4.3388       0.386210         5.5881         2.5118
    1412.44320         8.9570      -999.2500      -999.2500         5.5200       0.404859         5.4471         2.5310
    1412.59560         9.0104      -999.2500      -999.2500         5.0178       0.392307         5.4499         2.6085
    1412.74800         9.0834      -999.2500      -999.2500         4.1129       0.382076         5.6682         2.6907
    1412.90040         8.9252      -999.2500      -999.2500         4.2270       0.407259         5.6424         2.6390
    1413.05280         8.9892      -999.2500      -999.2500         4.1897       0.419139         5.5137         2.5879
    1413.20520         8.9220      -999.2500      -999.2500         4.5815       0.410588         5.5890         2.6365
    1413.35760         8.9405      -999.2500      -999.2500         4.3902       0.397204         5.8305         2.6996
    1413.51000         8.8301      -999.2500      -999.2500         4.4534       0.398351         6.2013         2.7241
    1413.66240         8.8080      -999.2500      -999.2500         5.3688       0.432151         6.5157         2.7966
    1413.81480         8.7723      -999.2500      -999.2500         5.0891       0.390105         6.5308         2.8781
    1413.96720         8.8887      -999.2500      -999.2500         4.5025       0.396539         6.1660         2.7488
