~Version Information Block
VERS .                  2.0:  CWLS LOG ASCII STANDARD - VERSION 2.0
WRAP .                   NO:  One line per depth step
~Well Information Block
#MNEM.UNIT        Data Type   Information
#---------- ----------------  -----------
STRT .M           393.03960:  START DEPTH
STOP .M          1428.59760:  STOP DEPTH
STEP .M             0.15240:  STEP
NULL .              -999.25:  NULL VALUE
COMP .                     :  COMPANY
WELL .                 KJ-05:  WELL
FLD  .                     :  FIELD
LOC  .                     :  LOCATION
CTRY .                     :  COUNTRY
STAT .                     :  STATE
CNTY .                     :  COUNTY
SRVC .                     :  SERVICE COMPANY
DATE .                     :  DATE
API  .                     :  API NUMBER
UWI  .                     :  UNIQUE WELL ID
~Curve Information Block
#MNEM.UNIT         API CODE   Curve Description
#---------- ----------------  -----------------
DEPTH.M      00 000 000 000:  Depth
CALI .IN     00 000 000 000:  Caliper
DTC  .US/FT   00 000 000 000:  WAVE Compressional
GR   .GAPI   00 000 000 000:  Gamma API
LLD  .OHMM   00 000 000 000:  LLD
NPHI .V/V    00 000 000 000:  Neutron Porosity
PE   .B/E    00 000 000 000:  Pe
RHOB .G/C3   00 000 000 000:  Density
~Parameter Information Block
#MNEM.UNIT            Value   Description
#---------- ----------------  -----------
PROJECT.             KARJISAN:  
SET  .               SPLICE:  
~Other Information Block
# 
~A       DEPTH           CALI            DTC             GR            LLD           NPHI             PE           RHOB 
# ...
     862.73640         8.6867       129.9176        92.0487         3.8999       0.391881         3.0105         2.2118
     862.88880         8.5101       131.4140        93.8536         4.0189       0.397274         3.0143         2.2260
     863.04120         8.6439       132.3890        97.2827         4.1569       0.411725         3.0790         2.2411
     863.19360         8.6770       132.9168        98.9365         4.2418       0.427156         3.1757         2.2532
     863.34600         8.7821       133.4999        98.0563         4.2759       0.414522         3.2904         2.2618
     863.49840         8.8672       133.8032        96.9567         4.2978       0.402090         3.4364         2.2695
     863.65080         8.6854       133.8193        98.9573         4.2806       0.423517         3.5997         2.2757
     863.80320         8.6430       132.6675        97.1256         4.2349       0.433230         3.7267         2.2716
     863.95560         8.5770       129.9449        87.4075         4.1277       0.416431         3.8446         2.2562
     864.10800         8.6009       126.6494        80.6501         4.1108       0.421192         4.0574         2.2528
     864.26040         8.6401       124.1777        77.2447         4.1497       0.420477         4.4234         2.2761
     864.41280         8.6469       123.0502        74.6425         4.1972       0.403922         4.8316         2.3165
     864.56520         8.6564       121.3006        72.1055         4.5289       0.387912         4.9016         2.3481
     864.71760         8.7624       117.8011        65.8549         4.9288       0.360533         4.4776         2.3471
     864.87000         8.8155       113.7855        58.0217         5.2347       0.331360         4.0591         2.3283
     865.02240         8.8217       107.9457        54.0740         5.6997       0.318764         3.9852         2.3180
     865.17480         8.7914       105.4046        51.7296         5.9250       0.318307         3.9752         2.3253
     865.32720         8.7874       104.9591        53.0485         5.9427       0.299673         3.8933         2.3482
     865.47960         8.7957       105.0501        55.1676         5.9931       0.296570         3.9765         2.3715
     865.63200         8.6813       105.4209        51.1487         5.9792       0.312811         4.2519         2.3785
     865.78440         8.6620       106.2103        50.6834         6.0544       0.315255         4.4232         2.3791
     865.93680         8.5735       107.3697        56.7325         6.0076       0.323958         4.3250         2.3793
     866.08920         8.5513       109.2310        63.3091         5.5106       0.324580         4.2642         2.3724
     866.24160         8.5050       111.4965        72.2774         5.0000       0.361920         4.5744         2.3779
     866.39400         8.4580       113.9170        83.9221         4.7116       0.402259         4.9586         2.3938
     866.54640         8.5023       115.7891        92.3836         4.5324       0.374234         5.0446         2.3855
     866.69880         8.5240       117.0500        93.8448         4.7221       0.364848         4.8943         2.3631
     866.85120         8.4774       117.7976        91.6575         4.9784       0.338151         4.5962         2.3487
     867.00360         8.4097       118.4131        86.8443         5.1368       0.321304         4.2815         2.3286
     867.15600         8.4203       119.1514        79.5120         5.2383       0.315392         4.1388         2.3102
     867.30840         8.5008       120.4642        75.7628         5.1820       0.311115         4.1414         2.3008
     867.46080         8.5811       122.0480        73.4904         5.1442       0.297397         4.1978         2.2856
     867.61320         8.5379       123.0915        69.5128         5.0624       0.323466         4.2421         2.2723
     867.76560         8.5632       123.8061        64.0065         5.0694       0.312306         4.1327         2.2553
     867.91800         8.7934       124.0207        57.7980         5.2182       0.279825         3.8834         2.2248
     868.07040         8.8286       123.9140        51.3176         5.3961       0.285571         3.7713         2.2042
     868.22280         8.4295       123.5978        42.8413         5.4588       0.288758         3.8114         2.2011
     868.37520         8.6446       123.1442        36.6262         5.6245       0.281021         3.7965         2.2081
     868.52760         8.6934       122.6337        34.4508         5.5900       0.289271         3.8822         2.2388
     868.68000         8.6219       121.9016        37.4917         5.5054       0.285383         4.2225         2.2673
     868.83240         8.5035       120.0411        41.5165         5.5500       0.297416         4.6033         2.2551
     868.98480         8.5251       118.1839        39.8864         5.6060       0.293694         5.0346         2.2305
     869.13720         8.7137       117.4921        36.3506         5.7188       0.266558         5.5057         2.2249
     869.28960         8.9963       117.1922        35.3874         5.9436       0.278224         5.6103         2.2299
     869.44200         8.7934       117.0259        36.7655         6.0210       0.285184         5.4098         2.2308
     869.59440         8.8128       116.5533        38.0420         6.0552       0.256724         5.2950         2.2281
     869.74680         8.7031       116.0996        39.0545         5.8532       0.257935         5.0359         2.2219
     869.89920         8.8508       115.9011        36.9022         5.6540       0.246006         4.3329         2.2074
     870.05160         9.0560       115.9297        36.6709         5.3864       0.246583         3.8644         2.1931
     870.20400         8.8296       116.1731        35.9254         5.3534       0.257309         4.2909         2.1799
     870.35640         9.2181       116.6902        36.1728         5.2524       0.263179         5.1328         2.1669
     870.50880         8.9423       117.0556        35.1740         5.0989       0.275826         5.5761         2.1601
     870.66120         8.9104       117.2123        34.5812         5.0491       0.284477         5.3343         2.1582
     870.81360         8.9265       117.2719        37.3405         4.9940       0.271189         4.8103         2.1637
     870.96600         8.6664       117.2811        49.3823         5.0538       0.269293         4.5725         2.1873
     871.11840         8.9687       117.2789        73.8304         5.3720       0.291460         4.4672         2.2344
     871.27080         8.8200       116.9849       102.8665         5.7957       0.319721         4.0466         2.2803
     871.42320         8.6848       116.3190       122.4748         5.9863       0.311201         3.5920         2.2981
     871.57560         8.6656       114.7477       130.5273         6.1697       0.312283         3.4838         2.2952
     871.72800         8.6904       113.1485       131.0964         6.0590       0.310007         3.5102         2.2912
     871.88040         8.7487       112.8621       128.7076         5.9058       0.315591         3.4733         2.2950
     872.03280         8.8547       112.7072       127.1308         5.8240       0.293347         3.4743         2.3023
     872.18520         8.7877       112.4602       120.3260         5.7435       0.288767         3.5733         2.3055
     872.33760         8.6004       112.3495       110.9398         5.7425       0.298782         3.6694         2.3003
     872.49000         8.5743       112.4299       108.6043         5.7750       0.294271         3.6762         2.2924
     872.64240         8.6342       113.1560       111.0405         5.8202       0.284469         3.6434         2.2870
     872.79480         8.7192       113.9342       106.1236         5.7926       0.288974         3.6420         2.2834
