~Version Information Block
VERS .                  2.0:  CWLS LOG ASCII STANDARD - VERSION 2.0
WRAP .                   NO:  One line per depth step
~Well Information Block
#MNEM.UNIT        Data Type   Information
#---------- ----------------  -----------
STRT .M           393.03960:  START DEPTH
STOP .M          1428.59760:  STOP DEPTH
STEP .M             0.15240:  STEP
NULL .              -999.25:  NULL VALUE
COMP .                     :  COMPANY
WELL .                 KJ-05:  WELL
FLD  .                     :  FIELD
LOC  .                     :  LOCATION
CTRY .                     :  COUNTRY
STAT .                     :  STATE
CNTY .                     :  COUNTY
SRVC .                     :  SERVICE COMPANY
DATE .                     :  DATE
API  .                     :  API NUMBER
UWI  .                     :  UNIQUE WELL ID
~Curve Information Block
#MNEM.UNIT         API CODE   Curve Description
#---------- ----------------  -----------------
DEPTH.M      00 000 000 000:  Depth
CALI .IN     00 000 000 000:  Caliper
DTC  .US/FT   00 000 000 000:  WAVE Compressional
GR   .GAPI   00 000 000 000:  Gamma API
LLD  .OHMM   00 000 000 000:  LLD
NPHI .V/V    00 000 000 000:  Neutron Porosity
PE   .B/E    00 000 000 000:  Pe
RHOB .G/C3   00 000 000 000:  Density
~Parameter Information Block
#MNEM.UNIT            Value   Description
#---------- ----------------  -----------
PROJECT.             KARJISAN:  
SET  .               SPLICE:  
~Other Information Block
# 
~A       DEPTH           CALI            DTC             GR            LLD           NPHI             PE           RHOB 
     393.03960         8.6696      -999.2500        65.3659         3.7348       0.417047         9.6731         1.7525
     393.19200         8.6763      -999.2500        55.9145         3.6932       0.412890         9.5156         1.7957
     393.34440         8.6832      -999.2500        47.7433         3.9403       0.403977         8.8637         1.9035
     393.49680         8.6805      -999.2500        41.7980         4.2140       0.391157         8.1831         2.0929
     393.64920         8.6500      -999.2500        39.2936         5.1775       0.411360         7.9358         2.1730
     393.80160         8.6804      -999.2500        41.5906         7.1450       0.437463         8.0472         2.1365
     393.95400         8.8704       141.3389        47.0972        12.0353       0.496522         8.7048         2.0921
     394.10640         8.9641       141.7306        50.7367        37.0840       0.443439         9.8528         1.9553
     394.25880         9.3263       141.5363        50.4048       192.0975       0.404556        10.4015         1.8845
     394.41120        10.1292       140.9688        49.7024       212.5819       0.388714         9.9878         1.9504
     394.56360        10.3115       140.9599        52.7580        22.7723       0.383965         9.0443         1.9998
     394.71600        10.2031       141.8391        56.4568        10.3374       0.375524         7.7517         2.0153
     394.86840        10.2172       146.1498        58.1847         8.4894       0.367129         7.1751         2.0039
     395.02080        10.5559       147.9990        59.4947        15.5451       0.404986         7.8524         1.9837
     395.17320        11.0473       147.1813        59.4502        24.9038       0.395195         8.2574         1.9912
     395.32560        11.2122       144.5313        58.0039        29.0032       0.354843         8.0394         1.9882
     395.47800        10.5787       139.6662        55.7900        31.4127       0.342861         8.0061         1.9620
     395.63040         9.9544       133.3922        53.3360        41.3343       0.353121         7.2688         1.9873
     395.78280         9.2871       128.2271        52.6573        39.4369       0.354991         5.4945         2.0378
     395.93520         8.9048       126.5549        52.8025        66.2304       0.348550         4.1732         2.0595
     396.08760         8.8563       128.5782        52.7966        72.2781       0.344161         3.8572         2.0621
     396.24000         8.7752       131.6204        54.1154        57.9572       0.344818         3.7638         2.0560
     396.39240         8.7316       135.9346        55.9500        67.8446       0.351952         3.6745         2.0486
     396.54480         8.6707       140.4851        58.8723        49.5508       0.386335         3.9679         2.0354
     396.69720         8.8271       144.5492        64.4827        39.4716       0.405513         4.8100         2.0155
     396.84960         8.9350       147.4007        66.1483        34.6173       0.387860         5.7930         1.9989
     397.00200         8.8926       147.1738        64.8680        33.4296       0.396612         5.8417         2.0000
     397.15440         8.6605       145.7090        62.9060        31.8277       0.381204         4.9151         2.0333
     397.30680         8.6045       141.9753        61.8657        35.5730       0.364024         4.4006         2.0833
     397.45920         8.5703       138.0966        65.7749        52.4028       0.379636         4.6856         2.1113
     397.61160         8.5519       136.6233        67.0701        30.2806       0.368386         4.8685         2.1043
     397.76400         8.5630       136.2724        61.7709        10.2720       0.367838         4.6686         2.0802
     397.91640         8.5465       137.8061        55.3899         9.4627       0.378570         4.5892         2.0738
     398.06880         8.5548       138.9807        50.0729         9.7751       0.352518         4.5909         2.0934
     398.22120         8.7304       139.5505        46.5756        10.8127       0.329732         4.2397         2.1066
     398.37360         8.9244       140.2959        46.2763        11.2722       0.311996         3.9312         2.1092
     398.52600         9.6672       140.6238        46.2022        11.4895       0.299826         4.4639         2.1142
     398.67840         9.5839       139.2403        44.8033        11.7322       0.293690         5.8209         2.0905
     398.83080         8.9958       135.7087        45.7576        11.6680       0.329886         7.0344         2.0432
     398.98320         8.9057       128.3421        47.7256        11.6786       0.328146         7.2208         2.0338
     399.13560         8.8255       123.8758        48.3094        12.5681       0.308383         6.4933         2.0710
     399.28800         9.2735       123.0752        47.1624        13.3517       0.293366         5.3359         2.1181
     399.44040         8.8427       125.2919        46.2822        14.5438       0.285704         4.4291         2.1578
     399.59280         8.7339       130.2966        47.8471        14.0711       0.289170         4.5658         2.1761
     399.74520         8.9176       133.1190        49.3171        12.6295       0.292549         5.4985         2.1486
     399.89760         9.4660       134.3676        53.1907        11.1743       0.308869         6.3437         2.0812
     400.05000         9.0195       132.9796        55.3602        10.8920       0.315390         6.3969         2.0479
     400.20240         8.7278       129.5610        55.6596        10.8327       0.311141         5.7060         2.0962
     400.35480         8.7644       126.4245        57.5831        12.0345       0.306696         5.0097         2.1658
     400.50720         8.7967       123.5123        60.4046        11.8891       0.297900         4.5924         2.2062
     400.65960         8.7563       122.0442        61.9131        10.6211       0.314805         4.4532         2.2106
     400.81200         8.6574       121.0006        58.5492        10.1365       0.303700         4.6457         2.1906
     400.96440         8.6003       120.6662        55.8907         9.6579       0.294580         5.0679         2.1882
     401.11680         8.5472       120.8988        57.5416         9.4738       0.280299         5.3707         2.2066
     401.26920         8.6277       122.7495        58.6737         8.9093       0.288775         5.2320         2.2119
     401.42160         8.6943       126.2068        60.0608         7.8155       0.304669         4.9193         2.1812
     401.57400         8.6087       131.8309        61.5871         6.9692       0.334984         4.8713         2.1293
     401.72640         8.6391       137.7390        61.9368         6.3933       0.342184         4.9847         2.0943
     401.87880         8.7421       141.2685        61.1574         6.0524       0.332789         4.8806         2.0778
     402.03120         8.7298       143.9702        62.3962         6.1791       0.342482         4.5821         2.0734
     402.18360         8.7148       144.8965        67.4583         6.3291       0.355644         4.4796         2.0841
     402.33600         8.6475       145.3766        68.2526         6.3247       0.357739         4.6109         2.0915
     402.48840         8.7002       145.3743        65.5111         6.7045       0.352283         4.7440         2.0864
     402.64080         8.6975       145.0775        61.7323         6.5662       0.343256         4.8938         2.0940
     402.79320         8.6855       144.9738        61.2463         6.3624       0.349429         4.9169         2.1198
     402.94560         8.7341       144.6390        67.6213         6.4659       0.349762         4.6299         2.1203
     403.09800         8.5935       143.7800        75.3153         6.4739       0.357082         4.4345         2.0924
