~Version Information Block
VERS .                  2.0:  CWLS LOG ASCII STANDARD - VERSION 2.0
WRAP .                   NO:  One line per depth step
~Well Information Block
#MNEM.UNIT        Data Type   Information
#---------- ----------------  -----------
STRT .M           393.03960:  START DEPTH
STOP .M          1428.59760:  STOP DEPTH
STEP .M             0.15240:  STEP
NULL .              -999.25:  NULL VALUE
COMP .                     :  COMPANY
WELL .                 KJ-05:  WELL
FLD  .                     :  FIELD
LOC  .                     :  LOCATION
CTRY .                     :  COUNTRY
STAT .                     :  STATE
CNTY .                     :  COUNTY
SRVC .                     :  SERVICE COMPANY
DATE .                     :  DATE
API  .                     :  API NUMBER
UWI  .                     :  UNIQUE WELL ID
~Curve Information Block
#MNEM.UNIT         API CODE   Curve Description
#---------- ----------------  -----------------
DEPTH.M      00 000 000 000:  Depth
CALI .IN     00 000 000 000:  Caliper
DTC  .US/FT   00 000 000 000:  WAVE Compressional
GR   .GAPI   00 000 000 000:  Gamma API
LLD  .OHMM   00 000 000 000:  LLD
NPHI .V/V    00 000 000 000:  Neutron Porosity
PE   .B/E    00 000 000 000:  Pe
RHOB .G/C3   00 000 000 000:  Density
~Parameter Information Block
#MNEM.UNIT            Value   Description
#---------- ----------------  -----------
PROJECT.             KARJISAN:  
SET  .               SPLICE:  
~Other Information Block
# 
~A       DEPTH           CALI            DTC             GR            LLD           NPHI             PE           RHOB 
# ...
    1271.16840         9.8885       148.6285        81.9170         3.3204       0.422058         4.9441         2.0359
    1271.32080         9.7580       149.9203        80.5179         2.7417       0.458265         5.4941         2.0634
    1271.47320        10.4437       148.7042        77.2506         2.2987       0.467829         6.1900         2.1191
    1271.62560        10.3750       145.2357        74.1717         2.0293       0.415198         6.7149         2.1409
    1271.77800        10.3869       144.4531        73.2080         1.9281       0.425724         6.7695         2.1333
    1271.93040        10.0443       139.3644        73.4993         1.9833       0.448092         6.5317         2.1549
    1272.08280        10.3777       135.5928        74.1370         1.9621       0.454788         6.1372         2.1698
    1272.23520         9.8416       134.1682        72.3248         1.8559       0.417901         5.7883         2.1497
    1272.38760         9.8003       132.5524        66.3025         2.1347       0.425910         5.8484         2.2411
    1272.54000        10.0112       132.0148        62.0139         2.5483       0.449032         6.5138         2.5194
    1272.69240         9.7555       131.9200        65.6386         2.3964       0.420243         7.2416         2.6926
    1272.84480        10.0032       131.1811        72.4790         2.4766       0.424220         7.1976         2.5099
    1272.99720        10.4231       130.9226        78.7859         2.2853       0.399812         6.7465         2.2211
    1273.14960        10.2924       131.2074        84.1325         2.0771       0.416261         6.7428         2.1350
    1273.30200        10.2295       131.1288        85.2291         2.3001       0.450928         7.1576         2.1255
    1273.45440         9.9864       130.1151        83.8035         2.4035       0.482413         7.5490         2.0643
    1273.60680        10.3021       130.0139        81.7644         2.4503       0.430618         7.5645         2.0402
    1273.75920        10.4230       130.6629        81.9975         2.4489       0.410146         7.3418         2.0491
    1273.91160        10.4711       131.8399        85.8791         2.4847       0.430467         7.5084         2.0369
    1274.06400        10.2463       132.8644        89.2409         2.5111       0.435425         7.7736         2.0912
    1274.21640        10.4805       134.1173        84.8157         2.5057       0.443481         7.7783         2.2350
    1274.36880        10.9289       135.4469        76.7764         2.3000       0.444983         7.9925         2.2741
    1274.52120        11.1364       136.4274        77.3810         1.9979       0.439292         8.0442         2.1686
    1274.67360        10.9078       136.7824        83.3738         1.8490       0.453357         7.6311         2.0953
    1274.82600        10.6110       137.0809        84.8270         1.7083       0.445019         7.3996         2.1302
    1274.97840        10.4489       137.1760        84.2387         1.6801       0.461101         7.3639         2.1886
    1275.13080        10.3769       136.8577        82.1528         1.8078       0.443471         7.1996         2.1751
    1275.28320        10.4636       136.4655        82.5839         1.9114       0.452237         7.1234         2.1271
    1275.43560        10.2908       135.8739        83.5727         2.0241       0.451816         7.1492         2.1150
    1275.58800        10.1350       135.0009        84.3212         2.1056       0.457673         7.0163         2.1205
    1275.74040        10.1235       133.8026        85.0390         2.0499       0.484981         6.6201         2.1265
    1275.89280         9.8773       132.8388        97.5354         1.9964       0.462449         6.1582         2.1388
    1276.04520         9.4928       131.8985        99.6675         2.1340       0.515676         6.0735         2.1608
    1276.19760        10.2004       131.1751        93.3646         2.3604       0.446287         6.3122         2.1885
    1276.35000         9.9263       130.3633        86.5983         2.5389       0.404559         6.6459         2.1691
    1276.50240         9.8375       129.4284        91.5941         2.6286       0.415720         6.9106         2.1217
    1276.65480         9.5414       127.7002        98.3363         2.6239       0.400562         6.7172         2.1432
    1276.80720         9.4165       125.8248       107.6045         2.5253       0.426175         6.1489         2.2250
    1276.95960         9.4892       123.3605       104.9965         2.4712       0.418587         5.7374         2.2968
    1277.11200         9.8913       121.4004       100.6940         2.5493       0.394007         5.7379         2.3254
    1277.26440        10.0052       120.5154        98.0296         2.6154       0.419971         5.8664         2.3268
    1277.41680         9.6659       119.5813        97.9674         2.6824       0.433078         5.8791         2.3164
    1277.56920         9.6089       117.3966        92.9260         2.5205       0.401863         6.0272         2.2997
    1277.72160         9.6045       113.5147        80.2144         3.1703       0.370133         6.3400         2.3693
    1277.87400         9.4373       111.0851        70.6414         4.2450       0.332417         6.5504         2.6039
    1278.02640         9.2798       110.8957        69.3166         4.1911       0.313883         6.5152         2.7663
    1278.17880         9.4359       113.1860        74.7433         4.3714       0.355579         6.1606         2.6307
    1278.33120         9.4564       118.6810        88.3677         3.7665       0.376268         5.7487         2.4108
    1278.48360         9.4405       127.0875        98.2489         2.8381       0.374836         5.5574         2.3211
    1278.63600         9.4403       131.5495        95.9609         2.9362       0.381552         5.4612         2.3183
    1278.78840         9.6446       135.1106        84.4081         2.7346       0.403262         5.4344         2.3111
    1278.94080         9.7710       136.0370        73.9016         2.5504       0.465667         5.5565         2.2768
    1279.09320         9.8770       137.1734        77.4314         2.3530       0.466870         5.6826         2.2454
    1279.24560         9.6902       138.3344        86.2131         2.3059       0.409911         5.7884         2.2317
    1279.39800         9.5888       138.0609        91.1951         2.3781       0.402205         5.9120         2.2386
    1279.55040         9.6582       137.2980        93.9485         2.7010       0.377709         5.8965         2.2633
    1279.70280         9.6618       134.2741        94.8376         2.8737       0.382603         5.8614         2.2848
    1279.85520         9.7494       131.4167        91.7701         3.0263       0.389636         5.9644         2.2876
    1280.00760         9.7609       129.4261        82.5884         2.9560       0.380416         5.9872         2.2906
    1280.16000         9.7841       128.4291        77.3484         2.8803       0.390508         5.7743         2.3202
    1280.31240         9.9796       127.0478        76.6134         2.8537       0.398883         5.6573         2.3386
    1280.46480        10.0562       127.0008        75.7124         2.9519       0.373588         5.6402         2.3439
    1280.61720         9.8561       128.0413        78.4747         2.9294       0.403195         5.5874         2.3451
    1280.76960         9.8670       126.0466        78.9222         2.9728       0.401490         5.5146         2.3509
    1280.92200         9.6971       126.6751        80.8516         3.0253       0.410064         5.5208         2.3541
    1281.07440         9.6244       128.9837        84.1088         2.8695       0.401717         5.4883         2.3456
    1281.22680         9.7940       130.2654        87.6860         2.7229       0.412189         5.4501         2.3204
