~Version Information Block
VERS .                  2.0:  CWLS LOG ASCII STANDARD - VERSION 2.0
WRAP .                   NO:  One line per depth step
~Well Information Block
#MNEM.UNIT        Data Type   Information
#---------- ----------------  -----------
STRT .M           393.03960:  START DEPTH
STOP .M          1428.59760:  STOP DEPTH
STEP .M             0.15240:  STEP
NULL .              -999.25:  NULL VALUE
COMP .                     :  COMPANY
WELL .                 KJ-05:  WELL
FLD  .                     :  FIELD
LOC  .                     :  LOCATION
CTRY .                     :  COUNTRY
STAT .                     :  STATE
CNTY .                     :  COUNTY
SRVC .                     :  SERVICE COMPANY
DATE .                     :  DATE
API  .                     :  API NUMBER
UWI  .                     :  UNIQUE WELL ID
~Curve Information Block
#MNEM.UNIT         API CODE   Curve Description
#---------- ----------------  -----------------
DEPTH.M      00 000 000 000:  Depth
CALI .IN     00 000 000 000:  Caliper
DTC  .US/FT   00 000 000 000:  WAVE Compressional
GR   .GAPI   00 000 000 000:  Gamma API
LLD  .OHMM   00 000 000 000:  LLD
NPHI .V/V    00 000 000 000:  Neutron Porosity
PE   .B/E    00 000 000 000:  Pe
RHOB .G/C3   00 000 000 000:  Density
~Parameter Information Block
#MNEM.UNIT            Value   Description
#---------- ----------------  -----------
PROJECT.             KARJISAN:  
SET  .               SPLICE:  
~Other Information Block
# 
~A       DEPTH           CALI            DTC             GR            LLD           NPHI             PE           RHOB 
# ...
     729.99600         8.6067       161.7116        71.3290         1.7299       0.419573         5.0146         2.1501
     730.14840         8.5025       163.8661        75.6383         1.5536       0.456315         4.9043         2.1242
     730.30080         8.2998       164.0067        69.5982         1.4379       0.461590         4.7503         2.1081
     730.45320         8.2841       161.6521        61.5545         1.4345       0.423082         4.6506         2.1073
     730.60560         8.4663       158.9103        61.6997         1.7204       0.449146         4.4958         2.1103
     730.75800         8.5548       156.4264        67.9355         2.0076       0.415506         4.4708         2.1065
     730.91040         8.5551       155.7737        72.7220         2.2384       0.390098         4.6894         2.1043
     731.06280         8.5816       156.9679        73.9223         2.1840       0.397805         4.9081         2.1066
     731.21520         8.6077       159.7959        72.4177         1.8245       0.442512         4.9590         2.1173
     731.36760         8.5637       161.9970        74.9339         1.6423       0.482258         4.8391         2.1327
     731.52000         8.5281       162.8932        80.4831         1.6832       0.450456         4.6049         2.1341
     731.67240         8.5821       163.2249        81.9146         1.8091       0.421451         4.4536         2.1267
     731.82480         8.5720       162.6759        77.9698         1.9423       0.408693         4.6223         2.1224
     731.97720         8.5535       161.1643        77.0837         1.9516       0.439116         4.9177         2.1143
     732.12960         8.5310       158.5180        77.4255         1.9016       0.413570         4.8784         2.1076
     732.28200         8.5321       155.4195        71.5039         2.1808       0.401716         4.6197         2.1250
     732.43440         8.6260       151.4380        62.7963         2.7578       0.366513         4.6245         2.1619
     732.58680         8.6983       147.4214        51.9549         3.9046       0.318960         4.7566         2.1797
     732.73920         8.6676       144.2345        42.8442         5.7770       0.313556         4.7022         2.1702
     732.89160         8.5726       141.6297        38.5705         6.2169       0.298188         4.7707         2.1621
     733.04400         8.4752       140.1923        37.7673         5.8601       0.298841         4.9975         2.1666
     733.19640         8.6733       139.7811        39.5396         5.3788       0.303927         4.8039         2.1729
     733.34880         8.7361       138.6786        42.4234         4.9934       0.318059         4.2785         2.1633
     733.50120         8.5541       138.9720        42.5666         4.9880       0.318970         4.0512         2.1511
     733.65360         8.5435       139.5531        43.6435         4.8243       0.316867         4.1012         2.1633
     733.80600         8.5775       141.0827        47.4213         4.5592       0.321421         4.0606         2.1680
     733.95840         8.7115       142.4148        49.3201         4.3215       0.328202         3.9072         2.1437
     734.11080         8.7644       143.2063        49.8447         4.0299       0.340396         3.8068         2.1290
     734.26320         8.7333       142.6849        49.6728         3.5708       0.323363         3.7418         2.1267
     734.41560         8.6537       140.9424        48.6048         3.9580       0.336005         3.6591         2.1324
     734.56800         8.7448       138.4047        46.1745         4.6802       0.332185         3.8283         2.1682
     734.72040         8.8045       135.9020        44.0505         5.3421       0.309940         4.1993         2.2073
     734.87280         8.5879       134.1358        42.3760         6.9142       0.295622         4.1965         2.2179
     735.02520         8.8179       133.1837        42.7020         7.7478       0.298406         3.8505         2.2176
     735.17760         8.5994       132.7715        44.2550         7.4075       0.281920         3.6139         2.2144
     735.33000         8.6809       133.3061        44.0890         7.3962       0.273589         3.4168         2.2015
     735.48240         8.6835       135.0337        43.5555         6.9267       0.287610         3.1732         2.1773
     735.63480         8.5234       137.1697        42.1655         6.1294       0.305581         3.1297         2.1444
     735.78720         8.5184       137.7126        40.3527         5.9476       0.318860         3.4163         2.1100
     735.93960         8.5256       136.3631        39.3361         5.8766       0.315310         3.8641         2.0912
     736.09200         8.5489       133.7390        40.2667         6.1982       0.284132         4.1063         2.1053
     736.24440         8.5447       132.1236        41.5846         6.4501       0.292357         4.0571         2.1278
     736.39680         8.5560       130.9486        42.0588         6.5398       0.302954         4.0828         2.1255
     736.54920         8.5407       130.9992        37.6547         6.6660       0.312669         4.5091         2.1118
     736.70160         8.4543       133.2808        33.8640         6.5283       0.314467         5.0121         2.1123
     736.85400         8.5242       136.3022        37.6339         5.8365       0.296043         5.1093         2.1090
     737.00640         8.5468       140.1729        42.0806         4.9900       0.307171         4.8456         2.0734
     737.15880         8.4569       144.8860        43.9033         4.4399       0.322745         4.3890         2.0264
     737.31120         8.4548       147.5456        44.3607         4.1416       0.325523         4.0380         2.0021
     737.46360         8.4334       150.8401        44.8705         4.1041       0.313483         3.9512         1.9978
     737.61600         8.4371       151.6388        45.1056         4.5560       0.317673         3.9805         2.0033
     737.76840         8.4107       150.8282        43.2088         4.7895       0.302377         4.1982         2.0161
     737.92080         8.4393       149.3070        39.7708         4.6994       0.329100         4.4774         2.0217
     738.07320         8.4132       147.7559        41.2734         4.7414       0.339007         4.4755         2.0183
     738.22560         8.3527       146.9206        43.2206         4.6582       0.346695         4.1707         2.0144
     738.37800         8.3718       146.5267        41.9225         4.4996       0.334637         3.8269         1.9993
     738.53040         8.3863       146.7155        42.9539         4.7716       0.333231         3.8400         1.9843
     738.68280         8.5533       146.7443        46.7742         4.7492       0.354903         4.2098         1.9900
     738.83520         8.5489       146.3998        50.1529         4.4842       0.348651         4.5287         1.9999
     738.98760         8.5263       144.9709        49.9662         4.8145       0.336690         4.7304         1.9992
     739.14000         8.5914       144.2303        49.2914         4.9826       0.354502         5.0170         2.0069
     739.29240         8.5537       143.7897        49.0548         5.2948       0.308908         5.0148         2.0233
     739.44480         8.4910       143.1831        46.1529         5.8929       0.292764         4.3254         2.0341
     739.59720         8.4235       143.8207        43.2284         5.8727       0.278767         3.5519         2.0478
     739.74960         8.3770       142.2207        44.9263         5.6655       0.272087         3.2958         2.0601
     739.90200         8.4701       142.0762        46.6023         5.5487       0.276333         3.3118         2.0640
     740.05440         8.4402       142.9929        51.5696         5.4884       0.285270         3.3607         2.0700
