~Version Information Block
VERS .                  2.0:  CWLS LOG ASCII STANDARD - VERSION 2.0
WRAP .                   NO:  One line per depth step
~Well Information Block
#MNEM.UNIT        Data Type   Information
#---------- ----------------  -----------
STRT .M           375.05640:  START DEPTH
STOP .M          1661.16000:  STOP DEPTH
STEP .M             0.15240:  STEP
NULL .              -999.25:  NULL VALUE
COMP .                     :  COMPANY
WELL .                 KJ-06:  WELL
FLD  .                     :  FIELD
LOC  .                     :  LOCATION
CTRY .                     :  COUNTRY
STAT .                     :  STATE
CNTY .                     :  COUNTY
SRVC .                     :  SERVICE COMPANY
DATE .                     :  DATE
API  .                     :  API NUMBER
UWI  .                     :  UNIQUE WELL ID
~Curve Information Block
#MNEM.UNIT         API CODE   Curve Description
#---------- ----------------  -----------------
DEPTH.M      00 000 000 000:  Depth
CALI .IN     00 000 000 000:  Caliper
DTC  .US/F   00 000 000 000:  MonoDeltaT
GR   .GAPI   00 000 000 000:  Gamma API
LLD  .OHMM   00 000 000 000:  LLD
NPHI .V/V    00 000 000 000:  Neutron Porosity
PE   .       00 000 000 000:  Pe
RHOB .G/C3   00 000 000 000:  Density
~Parameter Information Block
#MNEM.UNIT            Value   Description
#---------- ----------------  -----------
PROJECT.             KARJISAN:  
SET  .               SPLICE:  
~Other Information Block
# 
~A       DEPTH           CALI            DTC             GR            LLD           NPHI             PE           RHOB 
     375.05640      -999.2500       138.2436        31.8697         1.3379       0.394732         8.6662         1.8627
     375.20880      -999.2500       136.2358        30.5126         1.5936       0.393609         8.3797         2.0079
     375.36120      -999.2500       135.9289        29.6205         1.9621       0.353129         7.7416         2.1497
     375.51360      -999.2500       135.9289        28.4980         2.5137       0.344232         7.3538         2.1628
     375.66600      -999.2500       139.9570        30.4037         3.9570       0.421537         7.5105         2.1671
     375.81840         9.9722       147.3658        37.9806         7.9827       0.433794         8.1813         2.1861
     375.97080        10.0254       149.5913        45.8338        38.1683       0.386916         8.3557         2.1400
     376.12320        10.0210       158.4054        50.1647       141.1130       0.393600         7.7908         2.1003
     376.27560        10.1906       158.7629        52.3468        62.3791       0.424863         7.3661         2.0816
     376.42800        10.3220       156.8028        53.1678         6.5216       0.393723         7.3633         2.0677
     376.58040        10.6822       155.5933        55.4588         4.5940       0.424856         7.7287         2.0629
     376.73280        10.7786       158.4469        56.7949         4.5752       0.405637         7.7475         2.0789
     376.88520        11.8419       162.6042        56.4766         8.0204       0.424954         6.7562         2.0623
     377.03760        11.6371       166.3413        53.5992         8.5358       0.447515         6.7254         2.0239
     377.19000        12.3258       168.0810        48.6652        13.0772       0.439268         7.5720         1.9679
     377.34240        12.6590       167.7689        48.3469        11.7670       0.430101         8.3231         1.9301
     377.49480        13.0351       165.0346        52.6903        11.6937       0.418834         7.9498         1.9585
     377.64720        12.3504       159.3917        53.3018        14.2081       0.438835         6.7833         2.0377
     377.79960        11.7557       151.7445        48.9500        19.7184       0.377851         5.7726         2.1481
     377.95200        11.3715       145.7259        45.8590        33.0471       0.353297         5.1956         2.2169
     378.10440        11.9460       141.3204        46.5459        35.8575       0.340646         5.0811         2.1843
     378.25680        12.0255       138.7162        47.9616        30.0787       0.367956         5.2294         2.1538
     378.40920        11.9939       137.8705        46.6171        24.6405       0.378976         6.1570         2.0977
     378.56160        12.2505       137.9505        45.9637        31.6357       0.361315         7.9379         1.9849
     378.71400        11.9084       151.7155        46.4789        31.9466       0.372116         7.9200         1.9825
     378.86640        12.0469       155.0108        45.7375        13.0740       0.391057         6.8271         2.0748
     379.01880        12.4339       156.5687        47.2872        12.2971       0.407882         5.9803         2.1454
     379.17120        12.5895       157.6823        51.4715        10.9577       0.382096         5.7921         2.1412
     379.32360        12.2230       157.9215        53.4233         9.9582       0.380642         5.7429         2.1277
     379.47600        11.8808       157.2143        54.2777        10.7126       0.359910         5.6036         2.1306
     379.62840        11.4222       128.0191        54.0138        12.0394       0.339206         5.3976         2.1273
     379.78080        10.2633       124.9886        51.0400        12.2469       0.330574         5.2994         2.1023
     379.93320         9.9618       125.5134        48.0244        12.0497       0.325744         5.4740         2.0714
     380.08560         9.8188       129.0007        44.6611        10.3795       0.335763         5.5892         2.0619
     380.23800         9.8008       133.1479        42.5292         8.1308       0.323050         5.0593         2.0679
     380.39040         9.8252       135.0518        42.3575         7.6798       0.308417         4.1365         2.0746
     380.54280         9.8217       138.0864        42.7344         7.6159       0.322814         3.5056         2.0751
     380.69520         9.7440       140.4825        43.1114         8.0326       0.300228         3.2846         2.0824
     380.84760         9.6983       138.4360        42.4570         9.5332       0.293259         3.3166         2.1114
     381.00000         9.6143       134.7230        42.6626        11.0641       0.276725         3.4497         2.1535
     381.15240         9.5938       133.7882        42.0873        12.9254       0.280761         3.5751         2.1921
     381.30480         9.6077       132.6986        40.2854        14.6822       0.262489         3.6110         2.2148
     381.45720         9.5633       131.7730        40.7198        14.6219       0.254801         3.5709         2.2165
     381.60960         9.5446       132.1617        42.4538        13.5252       0.270904         3.6110         2.2125
     381.76200         9.5100       133.6274        44.3553        11.1045       0.274394         3.6703         2.2095
     381.91440         9.6018       135.4136        46.9438         9.6421       0.300360         3.5607         2.1863
     382.06680         9.7026       135.4136        47.4087         9.2504       0.322696         3.3240         2.1566
     382.21920         9.7567       137.4835        45.5700         8.9551       0.306612         3.1099         2.1511
     382.37160         9.8619       139.5691        45.0087         9.5576       0.309674         3.0409         2.1549
     382.52400         9.7597       141.1143        46.0475        10.0333       0.301960         3.1387         2.1542
     382.67640         9.7905       142.3791        50.0055         9.1831       0.279766         3.3176         2.1410
     382.82880         9.8569       143.8475        51.3626         8.7335       0.313016         3.5201         2.1146
     382.98120         9.9817       143.8475        46.2611         8.5414       0.315476         3.5781         2.1090
     383.13360         9.6999       145.3473        43.6559         8.5035       0.289267         3.3263         2.1283
     383.28600         9.7612       145.8906        45.4611         9.0081       0.288962         3.0011         2.1513
     383.43840         9.8082       144.8618        49.0715         9.6202       0.290712         2.9621         2.1624
     383.59080         9.9351       142.5483        52.1290        11.3418       0.301852         3.2261         2.1590
     383.74320         9.4528       140.2926        53.8714        11.7548       0.308611         3.5557         2.1565
     383.89560         9.3671       138.8013        57.7876        11.5214       0.321080         3.6426         2.1354
     384.04800         9.3954       138.2911        64.4514        11.3369       0.348234         3.4221         2.0927
     384.20040         9.4136       139.1488        69.7355         9.2408       0.358668         3.1789         2.0746
     384.35280         9.4873       141.4115        71.8237         8.8083       0.349875         3.1077         2.0811
     384.50520         9.4352       143.8922        72.8792         8.9430       0.366464         3.2352         2.0796
     384.65760         9.5057       145.2328        71.1055         8.9625       0.378799         3.5411         2.0729
     384.81000         9.5273       145.6462        71.9330         8.9625       0.368828         3.7767         2.0777
     384.96240         9.5190       145.8206        73.1056         8.7617       0.351892         3.6130         2.0829
     385.11480         9.5871       146.1885        72.7989         8.6381       0.352305         3.2059         2.0815
