~Version Information Block
VERS .                  2.0:  CWLS LOG ASCII STANDARD - VERSION 2.0
WRAP .                   NO:  One line per depth step
~Well Information Block
#MNEM.UNIT        Data Type   Information
#---------- ----------------  -----------
STRT .M           375.05640:  START DEPTH
STOP .M          1661.16000:  STOP DEPTH
STEP .M             0.15240:  STEP
NULL .              -999.25:  NULL VALUE
COMP .                     :  COMPANY
WELL .                 KJ-06:  WELL
FLD  .                     :  FIELD
LOC  .                     :  LOCATION
CTRY .                     :  COUNTRY
STAT .                     :  STATE
CNTY .                     :  COUNTY
SRVC .                     :  SERVICE COMPANY
DATE .                     :  DATE
API  .                     :  API NUMBER
UWI  .                     :  UNIQUE WELL ID
~Curve Information Block
#MNEM.UNIT         API CODE   Curve Description
#---------- ----------------  -----------------
DEPTH.M      00 000 000 000:  Depth
CALI .IN     00 000 000 000:  Caliper
DTC  .US/F   00 000 000 000:  MonoDeltaT
GR   .GAPI   00 000 000 000:  Gamma API
LLD  .OHMM   00 000 000 000:  LLD
NPHI .V/V    00 000 000 000:  Neutron Porosity
PE   .       00 000 000 000:  Pe
RHOB .G/C3   00 000 000 000:  Density
~Parameter Information Block
#MNEM.UNIT            Value   Description
#---------- ----------------  -----------
PROJECT.             KARJISAN:  
SET  .               SPLICE:  
~Other Information Block
# 
~A       DEPTH           CALI            DTC             GR            LLD           NPHI             PE           RHOB 
# ...
    1641.19560         5.5000      -999.2500      -999.2500         2.9075       0.512488         6.5009         1.9997
    1641.34800         5.5000      -999.2500      -999.2500         2.8204       0.477380         6.2349         1.9549
    1641.50040         5.5000      -999.2500      -999.2500         3.2280       0.503251         6.2258         1.9550
    1641.65280         5.5000      -999.2500      -999.2500         3.4532       0.422512         6.4623         2.1659
    1641.80520         5.5000      -999.2500      -999.2500         3.5042       0.396037         6.6176         2.3904
    1641.95760         5.5000      -999.2500      -999.2500         3.5367       0.401470         6.5740         2.2945
    1642.11000         5.5000      -999.2500      -999.2500         3.6290       0.435471         6.4541         2.1018
    1642.26240         5.5000      -999.2500      -999.2500         3.1277       0.454068         6.3446         2.0259
    1642.41480         5.5000      -999.2500      -999.2500         3.0553       0.431476         6.2480         2.0215
    1642.56720         5.5000      -999.2500      -999.2500         3.0460       0.409740         6.1784         2.1687
    1642.71960         5.5000      -999.2500      -999.2500         3.3344       0.407062         6.1155         2.4428
    1642.87200         5.5000      -999.2500      -999.2500         3.4473       0.424827         5.9859         2.5847
    1643.02440         5.5000      -999.2500      -999.2500         3.4304       0.434909         5.8370         2.4472
    1643.17680         5.5000      -999.2500      -999.2500         3.6067       0.441214         5.7037         2.1856
    1643.32920         5.5000      -999.2500      -999.2500         3.3779       0.469874         5.4036         2.0803
    1643.48160         5.5000      -999.2500      -999.2500         3.4537       0.479487         5.0846         2.1226
    1643.63400         5.5000      -999.2500      -999.2500         3.4484       0.489870         5.0797         2.1408
    1643.78640         5.5000      -999.2500      -999.2500         3.3261       0.450632         5.3297         2.1776
    1643.93880         5.5000      -999.2500      -999.2500         3.6468       0.405148         5.6251         2.2982
    1644.09120         5.5000      -999.2500      -999.2500         3.8723       0.396042         5.8668         2.4087
    1644.24360         5.5000      -999.2500      -999.2500         4.1372       0.389406         5.9942         2.4315
    1644.39600         5.5000      -999.2500      -999.2500         3.9831       0.391882         6.0066         2.4190
    1644.54840         5.5000      -999.2500      -999.2500         3.8313       0.398665         6.0732         2.4301
    1644.70080         5.5000      -999.2500      -999.2500         3.8739       0.411307         6.2366         2.3978
    1644.85320         5.5000      -999.2500      -999.2500         3.8459       0.413162         6.2652         2.2611
    1645.00560         5.5000      -999.2500      -999.2500         3.4768       0.427357         6.0803         2.1137
    1645.15800         5.5000      -999.2500      -999.2500         3.5502       0.454272         5.8513         2.0470
    1645.31040         5.5000      -999.2500      -999.2500         3.5646       0.460130         5.6782         2.0739
    1645.46280         5.5000      -999.2500      -999.2500         3.6428       0.465399         5.6373         2.1511
    1645.61520         5.5000      -999.2500      -999.2500         3.4485       0.415402         5.8188         2.2213
    1645.76760         5.5000      -999.2500      -999.2500         3.3020       0.418049         6.1022         2.3007
    1645.92000         5.5000      -999.2500      -999.2500         3.2280       0.438166         6.2501         2.3515
    1646.07240         5.5000      -999.2500      -999.2500         3.1934       0.444753         6.2112         2.2980
    1646.22480         5.5000      -999.2500      -999.2500         3.1756       0.444543         6.1186         2.2140
    1646.37720         5.5000      -999.2500      -999.2500         3.2336       0.427970         6.0093         2.1889
    1646.52960         5.5000      -999.2500      -999.2500         3.3497       0.415197         5.7677         2.2069
    1646.68200         5.5000      -999.2500      -999.2500         4.4335       0.398657         5.4407         2.2230
    1646.83440         5.5000      -999.2500      -999.2500         4.4486       0.417261         5.2451         2.2100
    1646.98680         5.5000      -999.2500      -999.2500         4.4304       0.441345         5.2303         2.2134
    1647.13920         5.5000      -999.2500      -999.2500         4.0126       0.411584         5.3652         2.2586
    1647.29160         5.5000      -999.2500      -999.2500         3.4974       0.446800         5.7028         2.3033
    1647.44400         5.5000      -999.2500      -999.2500         3.6896       0.439124         6.1173         2.3809
    1647.59640         5.5000      -999.2500      -999.2500         3.8069       0.422628         6.3347         2.4827
    1647.74880         5.5000      -999.2500      -999.2500         4.0320       0.421875         6.2906         2.5112
    1647.90120         5.5000      -999.2500      -999.2500         4.2896       0.406658         6.1291         2.4879
    1648.05360         5.5000      -999.2500      -999.2500         4.3196       0.421799         5.9970         2.4785
    1648.20600         5.5000      -999.2500      -999.2500         4.0362    -999.250000         5.9265         2.4884
    1648.35840         5.5000      -999.2500      -999.2500         4.1413    -999.250000         5.8954         2.4970
    1648.51080         5.5000      -999.2500      -999.2500         4.8828    -999.250000         5.8550         2.4989
    1648.66320         5.5000      -999.2500      -999.2500         4.9999    -999.250000         5.8743         2.5363
    1648.81560         5.5000      -999.2500      -999.2500         5.0243    -999.250000         6.1223         2.4833
    1648.96800         5.5000      -999.2500      -999.2500         4.4740    -999.250000         6.3372         2.2348
    1649.12040         5.5000      -999.2500      -999.2500         2.8513    -999.250000         6.2255         2.0271
    1649.27280         5.5000      -999.2500      -999.2500         2.5718    -999.250000         6.0173         1.9956
    1649.42520         5.5000      -999.2500      -999.2500         2.3384    -999.250000         5.8942         2.0488
    1649.57760         5.5000      -999.2500      -999.2500         2.1642    -999.250000         5.8115         2.1060
    1649.73000         5.5000      -999.2500      -999.2500         2.2531    -999.250000         5.7414         2.1341
    1649.88240         5.5000      -999.2500      -999.2500         2.3043    -999.250000         5.6557         2.1524
    1650.03480         5.5000      -999.2500      -999.2500         2.3242    -999.250000         5.6071         2.1521
    1650.18720         5.5000      -999.2500      -999.2500         2.3276    -999.250000         5.6716         2.1191
    1650.33960         5.5000      -999.2500      -999.2500         2.2984    -999.250000         5.7894         2.0623
    1650.49200         5.5000      -999.2500      -999.2500         2.1339    -999.250000         5.7985         2.0206
    1650.64440         5.5000      -999.2500      -999.2500         2.2008    -999.250000         5.6042         2.0382
    1650.79680         5.5000      -999.2500      -999.2500         2.4311    -999.250000         5.3200         2.0711
    1650.94920         5.5000      -999.2500      -999.2500         2.6997    -999.250000         5.0986         2.0842
    1651.10160         5.5000      -999.2500      -999.2500         3.2248    -999.250000      -999.2500      -999.2500
    1651.25400         5.5000      -999.2500      -999.2500         3.3016    -999.250000      -999.2500      -999.2500
