~Version Information Block
VERS .                  2.0:  CWLS LOG ASCII STANDARD - VERSION 2.0
WRAP .                   NO:  One line per depth step
~Well Information Block
#MNEM.UNIT        Data Type   Information
#---------- ----------------  -----------
STRT .M           375.05640:  START DEPTH
STOP .M          1661.16000:  STOP DEPTH
STEP .M             0.15240:  STEP
NULL .              -999.25:  NULL VALUE
COMP .                     :  COMPANY
WELL .                 KJ-06:  WELL
FLD  .                     :  FIELD
LOC  .                     :  LOCATION
CTRY .                     :  COUNTRY
STAT .                     :  STATE
CNTY .                     :  COUNTY
SRVC .                     :  SERVICE COMPANY
DATE .                     :  DATE
API  .                     :  API NUMBER
UWI  .                     :  UNIQUE WELL ID
~Curve Information Block
#MNEM.UNIT         API CODE   Curve Description
#---------- ----------------  -----------------
DEPTH.M      00 000 000 000:  Depth
CALI .IN     00 000 000 000:  Caliper
DTC  .US/F   00 000 000 000:  MonoDeltaT
GR   .GAPI   00 000 000 000:  Gamma API
LLD  .OHMM   00 000 000 000:  LLD
NPHI .V/V    00 000 000 000:  Neutron Porosity
PE   .       00 000 000 000:  Pe
RHOB .G/C3   00 000 000 000:  Density
~Parameter Information Block
#MNEM.UNIT            Value   Description
#---------- ----------------  -----------
PROJECT.             KARJISAN:  
SET  .               SPLICE:  
~Other Information Block
# 
~A       DEPTH           CALI            DTC             GR            LLD           NPHI             PE           RHOB 
# ...
     456.74280        10.2939       154.8375        85.1086         5.2230       0.367748         4.0455         2.0619
     456.89520        10.3181       155.2505        91.5881         4.8736       0.380349         4.3397         2.0777
     457.04760        10.3058       155.4440        92.2541         4.9257       0.370783         4.1326         2.0758
     457.20000        10.3662       155.6386        82.4071         5.7505       0.367016         3.7198         2.0669
     457.35240         9.8989       155.9874        66.8220         5.7305       0.337826         3.3357         2.0450
     457.50480         9.9236       156.8245        63.6765         5.3820       0.315907         3.2107         2.0391
     457.65720        10.3277       158.6644        69.5193         5.1669       0.331631         3.6646         2.0710
     457.80960        10.5366       161.8186        76.0616         4.6896       0.364182         4.2851         2.1065
     457.96200        10.8904       165.6666        83.9275         4.4470       0.423318         4.5496         2.0866
     458.11440        11.0395       169.3326        83.8312         3.9506       0.435877         5.2034         1.9699
     458.26680        11.2385       172.6543        82.3233         3.7855       0.440546         6.7373         1.8281
     458.41920        11.2349       175.1411        84.9662         3.4415       0.411361         7.7520         1.7665
     458.57160        11.2419       175.9329        85.3516         3.1351       0.463752         7.5749         1.7523
     458.72400        11.2689       174.8938        84.4562         3.3324       0.445173         7.1515         1.7771
     458.87640        11.0785       171.5482        81.8091         3.7523       0.398762         6.5115         1.9155
     459.02880        10.8431       148.8731        82.9926         4.3456       0.356061         5.6024         2.0955
     459.18120        10.5423       123.7608        88.4300         5.1151       0.339619         5.1918         2.1709
     459.33360        10.1288       125.9343        92.5682         5.3805       0.355642         5.3466         2.1410
     459.48600        10.0014       125.9949       105.2465         5.1305       0.369966         5.5802         2.1085
     459.63840        10.0324       126.7103       118.5238         4.6281       0.375233         5.6798         2.1143
     459.79080        10.0271       128.9178       118.4610         4.5909       0.389238         5.7162         2.1288
     459.94320        10.0362       131.2161       114.0213         4.4840       0.369729         5.7696         2.1329
     460.09560        10.0540       132.2894       105.6486         5.2173       0.340183         5.8943         2.1431
     460.24800        10.0688       132.4208        95.6509         5.4499       0.330652         6.1276         2.1596
     460.40040        10.0459       132.0395        96.3755         5.5179       0.331179         6.3898         2.1425
     460.55280         9.9851       131.5870       112.3375         5.5417       0.360657         6.6978         2.1072
     460.70520         9.9747       131.6873       129.7027         4.9742       0.380887         7.1160         2.0895
     460.85760         9.9491       132.8008       127.7341         4.8974       0.384412         7.5225         2.0809
     461.01000         9.8784       134.3874       113.7951         5.0755       0.371777         7.5169         2.0806
     461.16240         9.7988       135.4310       102.1052         5.1533       0.369531         6.9349         2.0847
     461.31480         9.7851       135.9567        92.0865         5.1963       0.376996         6.2954         2.0790
     461.46720         9.7743       135.9732        85.3599         5.0143       0.376619         5.9701         2.0704
     461.61960         9.7795       134.6190        89.1169         4.9824       0.362275         5.9865         2.0814
     461.77200         9.7479       131.2608        95.1860         6.1632       0.349074         6.1731         2.1360
     461.92440         9.7024       126.4505        89.7661         6.6985       0.322109         6.0292         2.2011
     462.07680         9.6366       125.5397        81.7160         6.8436       0.304258         5.5855         2.1917
     462.22920         9.5521       125.7009        80.7066         6.8407       0.323330         5.3671         2.1258
     462.38160         9.5444       128.0811        79.9736         6.7921       0.335662         5.4619         2.0889
     462.53400         9.5137       133.2774        79.1234         5.2888       0.348417         5.6572         2.0866
     462.68640         9.4851       133.2774        79.3956         5.4447       0.347003         5.7974         2.0919
     462.83880         9.4812       133.7150        77.1423         5.5040       0.354821         5.7412         2.0937
     462.99120         9.4778       132.8684        74.3360         5.5351       0.346382         5.4606         2.0958
     463.14360         9.4819       130.8210        74.1978         5.5141       0.351325         5.1776         2.1002
     463.29600         9.4829       127.9902        74.4742         5.4137       0.341835         5.1148         2.1082
     463.44840         9.4811       125.9299        73.1298         6.3308       0.329645         5.2465         2.1434
     463.60080         9.4939       125.2395        74.3025         6.7575       0.325101         5.3277         2.1945
     463.75320         9.5039       126.1358        74.8680         6.5343       0.328792         5.0522         2.1938
     463.90560         9.5288       128.8002        78.6040         6.3139       0.325172         4.5668         2.1347
     464.05800         9.5508       132.2496        86.2604         5.4301       0.347628         4.3126         2.0850
     464.21040         9.5395       134.8511        86.2437         4.9700       0.344631         4.2672         2.0700
     464.36280         9.5474       136.4969        80.3464         5.1908       0.341273         4.2443         2.0721
     464.51520         9.5746       137.1874        75.4627         5.3918       0.348162         4.2475         2.0803
     464.66760         9.6035       136.8191        70.7089         5.4999       0.362206         4.2172         2.0890
     464.82000         9.6035       135.9418        63.3079         5.5840       0.355611         4.1021         2.0943
     464.97240         9.6678       135.4017        58.3279         5.5045       0.304927         3.9609         2.0953
     465.12480         9.6816       135.1459        60.3383         5.3634       0.305134         3.9768         2.0928
     465.27720         9.6859       134.4781        62.7886         5.2189       0.335669         4.2733         2.0915
     465.42960         9.6864       132.6243        62.9980         5.1420       0.325610         4.4999         2.0944
     465.58200         9.6776       129.7344        61.1463         5.7174       0.308758         4.4098         2.1170
     465.73440         9.6778       127.1615        59.8434         6.4629       0.303227         4.3057         2.1698
     465.88680         9.7031       125.8563        56.0596         6.5871       0.300354         4.2135         2.2021
     466.03920         9.7462       126.0668        56.8386         6.3954       0.317477         3.9137         2.1727
     466.19160         9.7914       127.8412        63.3954         5.7091       0.328926         3.5827         2.1265
     466.34400         9.7791       131.4075        65.6283         5.1928       0.333041         3.4489         2.1082
     466.49640         9.7801       136.2301        63.0776         5.1303       0.338522         3.4743         2.1018
     466.64880         9.7907       138.7551        60.5436         5.1295       0.346348         3.5191         2.0932
     466.80120         9.8101       139.2491        58.9562         5.2555       0.346655         3.4636         2.0944
