~Version Information Block
VERS .                  2.0:  CWLS LOG ASCII STANDARD - VERSION 2.0
WRAP .                   NO:  One line per depth step
~Well Information Block
#MNEM.UNIT        Data Type   Information
#---------- ----------------  -----------
STRT .M           375.05640:  START DEPTH
STOP .M          1661.16000:  STOP DEPTH
STEP .M             0.15240:  STEP
NULL .              -999.25:  NULL VALUE
COMP .                     :  COMPANY
WELL .                 KJ-06:  WELL
FLD  .                     :  FIELD
LOC  .                     :  LOCATION
CTRY .                     :  COUNTRY
STAT .                     :  STATE
CNTY .                     :  COUNTY
SRVC .                     :  SERVICE COMPANY
DATE .                     :  DATE
API  .                     :  API NUMBER
UWI  .                     :  UNIQUE WELL ID
~Curve Information Block
#MNEM.UNIT         API CODE   Curve Description
#---------- ----------------  -----------------
DEPTH.M      00 000 000 000:  Depth
CALI .IN     00 000 000 000:  Caliper
DTC  .US/F   00 000 000 000:  MonoDeltaT
GR   .GAPI   00 000 000 000:  Gamma API
LLD  .OHMM   00 000 000 000:  LLD
NPHI .V/V    00 000 000 000:  Neutron Porosity
PE   .       00 000 000 000:  Pe
RHOB .G/C3   00 000 000 000:  Density
~Parameter Information Block
#MNEM.UNIT            Value   Description
#---------- ----------------  -----------
PROJECT.             KARJISAN:  
SET  .               SPLICE:  
~Other Information Block
# 
~A       DEPTH           CALI            DTC             GR            LLD           NPHI             PE           RHOB 
# ...
    1467.61200         8.9164        98.0426        25.8467         2.5267       0.233605         5.3834         2.0756
    1467.76440         9.1555        97.8872        26.5252         2.5275       0.237223         4.4272         2.0890
    1467.91680         9.3033        97.9701        29.4781         2.5096       0.261212         3.5513         2.0950
    1468.06920         9.2065        98.9222        34.0242         2.4780       0.239773         3.3423         2.0961
    1468.22160         9.0469        99.3866        35.7682         2.7562       0.235428         3.7264         2.1003
    1468.37400         8.8423       100.0977        32.7073         2.6620       0.246252         4.4420         2.1049
    1468.52640         8.8946       100.9973        29.4680         2.5699       0.245319         4.9655         2.1032
    1468.67880         8.9945       101.8642        26.5981         2.3146       0.232467         4.8304         2.1008
    1468.83120         9.1811       101.6463        24.1479         2.1797       0.235282         4.2901         2.1032
    1468.98360         9.3059       101.1613        24.3012         2.1872       0.242492         3.9841         2.0979
    1469.13600         9.0378       100.5095        23.3864         2.2667       0.240750         4.2994         2.0881
    1469.28840         8.9753        99.7458        22.3837         2.3497       0.242966         5.0504         2.0862
    1469.44080         8.8660        99.7692        24.1328         2.3424       0.252245         5.6009         2.0850
    1469.59320         8.9884        99.7988        25.2662         2.3280       0.251843         5.5302         2.0849
    1469.74560         9.3048        99.6248        23.6930         2.2521       0.250170         5.1862         2.0867
    1469.89800         9.3812        99.4202        23.5297         2.2225       0.253401         5.0959         2.0846
    1470.05040         9.4258        99.5550        26.1005         2.2921       0.242783         5.1567         2.0804
    1470.20280         9.1684        99.5079        27.3445         2.3409       0.256857         5.2571         2.0809
    1470.35520         9.0334        99.1868        28.4251         2.4410       0.244348         5.5615         2.0898
    1470.50760         9.0157        98.4797        30.0709         2.4308       0.250616         5.8980         2.0864
    1470.66000         8.5949        98.0432        30.2967         2.4159       0.257138         5.9513         2.0665
    1470.81240         8.6087        98.0226        29.8986         2.2802       0.257447         5.6356         2.0600
    1470.96480         8.9036        98.8511        33.6480         2.1759       0.252788         5.2027         2.0683
    1471.11720         9.2062       101.6192        34.6516         2.2957       0.240819         4.9926         2.0778
    1471.26960         9.2167       102.2078        38.3793         2.2320       0.250831         5.0536         2.0760
    1471.42200         8.9162       102.4198        42.1640         2.1427       0.262743         5.2137         2.0635
    1471.57440         8.6418       102.4668        41.7292         2.2722       0.269700         5.2421         2.0686
    1471.72680         8.8161       102.2792        40.5053         2.1295       0.263622         4.9941         2.0809
    1471.87920         8.9454       102.0032        38.1054         2.1969       0.261458         4.4593         2.0718
    1472.03160         9.1242       101.7455        35.6124         2.1712       0.261628         3.8432         2.0530
    1472.18400         8.9622       101.2499        34.5419         2.1676       0.256356         3.5570         2.0483
    1472.33640         8.8314       101.1227        32.7903         2.1874       0.262573         3.7340         2.0585
    1472.48880         8.7139       101.4823        31.6845         2.2432       0.264236         4.1956         2.0696
    1472.64120         8.5069       102.2267        34.1373         2.2223       0.267379         4.6620         2.0812
    1472.79360         8.9955       103.4721        37.5827         2.2964       0.257374         4.7006         2.0863
    1472.94600         9.2151       104.0079        40.1786         2.3848       0.244154         4.3551         2.0755
    1473.09840         9.1271       104.5784        44.2046         2.4417       0.259527         4.1742         2.0686
    1473.25080         8.8723       104.7745        45.7501         2.5073       0.267627         4.3872         2.0733
    1473.40320         8.7613       104.5750        41.7141         2.2383       0.256816         4.7158         2.0807
    1473.55560         8.7373       105.1106        37.7360         1.9754       0.259770         4.7858         2.1002
    1473.70800         8.8796       106.2224        35.0831         2.0421       0.246182         4.5531         2.1286
    1473.86040         9.2607       107.6196        33.0694         2.3589       0.275370         4.1171         2.1172
    1474.01280         9.3230       111.9096        32.8388         3.4811       0.356547         3.5423         1.9410
    1474.16520         9.5585       125.2313        24.2734         6.3675       0.435283         2.8327         1.5649
    1474.31760         9.3954       130.6152        19.2419        11.9889       0.638702         2.0428         1.2450
    1474.47000         9.5351       133.9752        14.2188        20.5206       0.645070         1.4951         1.1576
    1474.62240         9.4697       143.0832        13.0578        38.0191       0.601624         1.3144         1.1668
    1474.77480         9.4792       143.2133        19.6395        20.3045       0.599246         1.3273         1.2131
    1474.92720         9.7678       143.2133        39.2790        13.9447       0.494420         1.6372         1.4156
    1475.07960         9.8029       141.7005        64.6960        10.7532       0.451367         2.5400         1.8209
    1475.23200         9.9011       124.1941        80.7795         5.9165       0.455725         3.7599         2.1968
    1475.38440         9.4623       122.0203        87.6326         4.2719       0.471475         4.5915         2.3055
    1475.53680         9.4012       120.8628        88.7509         3.9534       0.458530         4.9440         2.2540
    1475.68920         9.6425       119.9539        86.8611         3.7426       0.455702         5.1380         2.2104
    1475.84160         9.7280       115.9392        84.6797         3.8498       0.425135         5.2120         2.2229
    1475.99400         9.6654       112.9338        79.9954         4.8162       0.405531         5.1616         2.2986
    1476.14640         9.7545       110.8858        75.3412         5.1908       0.386294         5.1110         2.3794
    1476.29880         9.5488       109.8376        74.7331         5.7922       0.386005         5.2006         2.4469
    1476.45120         9.6114       109.9763        78.1835         6.7671       0.389603         5.5401         2.5724
    1476.60360         9.5753       110.6856        80.7217         5.6593       0.401636         5.7899         2.7176
    1476.75600         9.5522       111.4687        84.7049         5.4053       0.425033         5.4286         2.7186
    1476.90840         9.5963       112.0361        89.7159         5.4437       0.401220         4.6784         2.5423
    1477.06080         9.7648       111.7564        89.6229         5.5722       0.387761         4.3647         2.4659
    1477.21320         9.5458       105.3932        80.5935         7.3811       0.362599         5.1352         2.5953
    1477.36560         9.5021       103.8962        74.3988         6.6327       0.369391         6.1167         2.5922
    1477.51800         9.2781       104.7957        76.1127         7.7421       0.379357         6.0297         2.4701
    1477.67040         9.3111       210.9036        74.7632         9.6585       0.357315         5.7363         2.6029
