~Version Information Block
VERS .                  2.0:  CWLS LOG ASCII STANDARD - VERSION 2.0
WRAP .                   NO:  One line per depth step
~Well Information Block
#MNEM.UNIT        Data Type   Information
#---------- ----------------  -----------
STRT .M           375.05640:  START DEPTH
STOP .M          1661.16000:  STOP DEPTH
STEP .M             0.15240:  STEP
NULL .              -999.25:  NULL VALUE
COMP .                     :  COMPANY
WELL .                 KJ-06:  WELL
FLD  .                     :  FIELD
LOC  .                     :  LOCATION
CTRY .                     :  COUNTRY
STAT .                     :  STATE
CNTY .                     :  COUNTY
SRVC .                     :  SERVICE COMPANY
DATE .                     :  DATE
API  .                     :  API NUMBER
UWI  .                     :  UNIQUE WELL ID
~Curve Information Block
#MNEM.UNIT         API CODE   Curve Description
#---------- ----------------  -----------------
DEPTH.M      00 000 000 000:  Depth
CALI .IN     00 000 000 000:  Caliper
DTC  .US/F   00 000 000 000:  MonoDeltaT
GR   .GAPI   00 000 000 000:  Gamma API
LLD  .OHMM   00 000 000 000:  LLD
NPHI .V/V    00 000 000 000:  Neutron Porosity
PE   .       00 000 000 000:  Pe
RHOB .G/C3   00 000 000 000:  Density
~Parameter Information Block
#MNEM.UNIT            Value   Description
#---------- ----------------  -----------
PROJECT.             KARJISAN:  
SET  .               SPLICE:  
~Other Information Block
# 
~A       DEPTH           CALI            DTC             GR            LLD           NPHI             PE           RHOB 
# ...
    1559.50920         5.5000       151.7661        12.0483        38.0956       0.631892         2.9355         1.1841
    1559.66160         5.5000       151.7326        10.5141        39.2362       0.627898         3.0717         1.1875
    1559.81400         5.5000       152.1790        10.3657        38.9555       0.614927         3.1369         1.1897
    1559.96640         5.5000       152.4831        11.6088        39.8931       0.601540         2.9724         1.1846
    1560.11880         5.5000       152.6272        11.9850        41.2803       0.559990         2.6763         1.1774
    1560.27120         5.5000       152.4173        11.7850        38.6397       0.578186         2.2079         1.1720
    1560.42360         6.1470       152.0514        11.6200        39.6617       0.624921         1.5453         1.1697
    1560.57600         9.8243       151.7362        11.1479        39.8025       0.633128         1.0766         1.1722
    1560.72840         9.8239       151.8466        11.3690        40.9813       0.659291         0.9056         1.1793
    1560.88080         9.8702       151.9286        11.2032        43.2619       0.682518         0.8239         1.1861
    1561.03320         9.9850       151.9149        10.9619        41.1994       0.644842         0.7734         1.1907
    1561.18560         9.8273       151.9850        11.4092        40.4258       0.641067         0.7427         1.1940
    1561.33800         9.6267       152.1660        11.9236        39.5946       0.615448         0.7351         1.1955
    1561.49040         9.5608       152.3407        12.0090        39.8570       0.538045         0.7737         1.1963
    1561.64280         9.9734       152.4562        11.2560        39.2969       0.570229         0.8079         1.1971
    1561.79520         9.9716       152.6142        11.8373        39.1429       0.641056         0.7970         1.1970
    1561.94760        10.1842       152.8273        14.1467        39.9187       0.649838         0.7632         1.1967
    1562.10000         9.9304       153.0034        14.7692        37.2927       0.686078         0.6891         1.1963
    1562.25240         9.7168       153.1654        13.3249        37.9292       0.625712         0.6080         1.1967
    1562.40480         9.8069       153.6642        13.2968        38.4333       0.588816         0.7261         1.1952
    1562.55720        10.1148       153.8403        13.6308        38.0375       0.616959         1.0316         1.1887
    1562.70960        10.3142       154.0564        12.1849        37.6578       0.561165         1.2761         1.1850
    1562.86200        11.1763       155.3198        11.0253        35.7691       0.588845         1.5791         1.1911
    1563.01440        11.6432       156.3111        12.3046        35.9252       0.580434         2.1418         1.1895
    1563.16680        11.5170       157.4351        14.1528        37.3142       0.642401         2.6579         1.1793
    1563.31920        11.1432       157.5147        15.2894        34.3298       0.653931         3.2575         1.1880
    1563.47160        11.4311       157.7123        16.1941        34.8615       0.570561         4.5119         1.2064
    1563.62400        12.2709       158.0249        16.4152        33.4595       0.578532         5.4734         1.2049
    1563.77640        12.4094       157.5325        16.0936        31.9497       0.590749         4.9828         1.1999
    1563.92880        11.4803       155.5578        15.0582        33.3255       0.632092         3.6787         1.2122
    1564.08120        10.2289       154.7800        13.9223        34.3818       0.598484         3.0167         1.2129
    1564.23360         9.6687       154.4128        14.3118        35.8508       0.640661         1.6080         1.1941
    1564.38600        10.5204       153.8440        14.7692        38.7125       0.655478         1.8685         1.1884
    1564.53840        10.9187       153.6024        13.7724        37.9001       0.586102         2.8432         1.1883
    1564.69080        10.8980       152.9203        11.4654        33.3605       0.633002         3.1930         1.1929
    1564.84320        10.7887       152.5487         9.9416        32.0104       0.540038         2.3886         1.1993
    1564.99560        10.3103       152.3473        10.3940        29.7020       0.563182         1.3720         1.1980
    1565.14800        10.2710       151.4915        11.1077        28.2881       0.619843         0.9011         1.2016
    1565.30040        10.3262       151.3361        12.3944        29.5116       0.581451         0.8492         1.2099
    1565.45280        10.6085       151.4702        14.0630        30.6360       0.566010         0.8965         1.2134
    1565.60520        10.4722       151.0289        13.8921        32.2960       0.588297         0.9012         1.2124
    1565.75760        10.3013       150.4592        11.8918        29.6577       0.568224         0.8804         1.2120
    1565.91000        10.2768       150.3546        10.7659        31.1326       0.542983         0.9464         1.2150
    1566.06240        10.2735       150.4456        11.5609        31.1357       0.537870         1.2308         1.2123
    1566.21480        10.1027       149.9070        12.9255        33.8101       0.554215         1.4829         1.2099
    1566.36720        10.2752       149.8562        17.1742        35.0038       0.512102         1.3442         1.2169
    1566.51960        10.3532       150.5780        26.8746        44.9317       0.568070         1.1449         1.2455
    1566.67200        10.2769       151.2849        44.9007        15.0491       0.515816         1.6024         1.3964
    1566.82440        10.0700       151.6990        69.7321        10.4926       0.480169         2.6540         1.7189
    1566.97680        10.4775       124.7402        92.8924         7.8019       0.424755         3.3891         2.0479
    1567.12920        10.2231       123.4898       106.8750         4.7489       0.416337         3.6811         2.2401
    1567.28160        10.2226       118.6051       108.6241         4.5258       0.399057         4.0729         2.3229
    1567.43400        10.2511       112.9103       107.7395         4.7537       0.395892         4.4629         2.3496
    1567.58640        10.1875       111.0014       107.1665         4.9039       0.417735         4.6284         2.3486
    1567.73880        10.1202       110.4840       105.7491         4.9211       0.416638         4.7020         2.3674
    1567.89120        10.1199       110.8407       103.5980         5.4273       0.413037         4.9351         2.4665
    1568.04360        10.2012       112.0457       100.5019         5.6136       0.396932         5.3045         2.5355
    1568.19600        10.1975       111.9459       102.4696         5.6122       0.432937         5.4325         2.4541
    1568.34840        10.1660       111.3988       106.3933         5.6324       0.416175         5.3092         2.3674
    1568.50080        10.1338       111.0730       105.9912         5.7654       0.446078         5.2715         2.3752
    1568.65320        10.0538       112.0033        99.8485         5.6039       0.442871         5.4121         2.4392
    1568.80560        10.0565       112.4902        93.4101         5.5802       0.411848         5.5578         2.4696
    1568.95800        10.0608       112.7640        95.1893         5.6780       0.408162         5.5221         2.4014
    1569.11040        10.2764       113.0541        98.3306         5.6303       0.418030         5.3802         2.3229
    1569.26280        10.3186       113.6912        98.4512         5.4372       0.447127         5.3504         2.2998
    1569.41520        10.2603       117.4869        95.3116         5.4475       0.468665         5.3436         2.2699
    1569.56760        10.2092       121.4446        89.2154         6.4490       0.469793         4.6732         2.0638
