~Version Information Block
VERS .                  2.0:  CWLS LOG ASCII STANDARD - VERSION 2.0
WRAP .                   NO:  One line per depth step
~Well Information Block
#MNEM.UNIT        Data Type   Information
#---------- ----------------  -----------
STRT .M           375.05640:  START DEPTH
STOP .M          1661.16000:  STOP DEPTH
STEP .M             0.15240:  STEP
NULL .              -999.25:  NULL VALUE
COMP .                     :  COMPANY
WELL .                 KJ-06:  WELL
FLD  .                     :  FIELD
LOC  .                     :  LOCATION
CTRY .                     :  COUNTRY
STAT .                     :  STATE
CNTY .                     :  COUNTY
SRVC .                     :  SERVICE COMPANY
DATE .                     :  DATE
API  .                     :  API NUMBER
UWI  .                     :  UNIQUE WELL ID
~Curve Information Block
#MNEM.UNIT         API CODE   Curve Description
#---------- ----------------  -----------------
DEPTH.M      00 000 000 000:  Depth
CALI .IN     00 000 000 000:  Caliper
DTC  .US/F   00 000 000 000:  MonoDeltaT
GR   .GAPI   00 000 000 000:  Gamma API
LLD  .OHMM   00 000 000 000:  LLD
NPHI .V/V    00 000 000 000:  Neutron Porosity
PE   .       00 000 000 000:  Pe
RHOB .G/C3   00 000 000 000:  Density
~Parameter Information Block
#MNEM.UNIT            Value   Description
#---------- ----------------  -----------
PROJECT.             KARJISAN:  
SET  .               SPLICE:  
~Other Information Block
# 
~A       DEPTH           CALI            DTC             GR            LLD           NPHI             PE           RHOB 
# ...
     793.69920         8.6462       153.5090        64.7027         1.9865       0.469018         5.2405         2.1468
     793.85160         8.6641       153.5243        65.8796         1.9679       0.463529         5.2754         2.1485
     794.00400         8.6602       153.9675        69.4188         1.9677       0.427641         5.2644         2.1454
     794.15640         8.6501       155.1372        72.5099         2.0128       0.408754         5.2587         2.1503
     794.30880         8.6073       156.9223        73.8753         1.9339       0.430189         5.2304         2.1563
     794.46120         8.5238       159.0415        71.1528         1.8566       0.498084         5.1162         2.1442
     794.61360         8.1940       161.1095        69.6617         1.8340       0.486855         4.9619         2.1157
     794.76600         8.1597       163.7244        70.5916         1.7704       0.467955         4.8206         2.0912
     794.91840         8.2437       164.1666        69.6869         1.6649       0.458016         4.7658         2.0862
     795.07080         8.3046       165.1478        71.2282         1.6866       0.449318         4.8139         2.0897
     795.22320         8.3361       167.1706        72.1832         1.6164       0.439050         4.8142         2.0878
     795.37560         8.3861       167.9825        71.0020         1.5312       0.416855         4.7916         2.0803
     795.52800         8.4589       168.0030        65.4524         1.6679       0.414622         4.9795         2.0955
     795.68040         8.4955       167.8056        60.1415         1.7863       0.429369         5.4232         2.1375
     795.83280         8.5049       167.5952        61.3436         1.8598       0.476831         5.6198         2.1268
     795.98520         8.4681       167.7066        61.0797         1.8475       0.517577         5.1303         2.0618
     796.13760         8.4521       168.2262        62.1938         1.6361       0.498510         4.7701         2.0348
     796.29000         8.4420       168.8703        66.9016         1.6404       0.452259         4.3111         2.0161
     796.44240         8.4513       169.5182        70.7047         1.6571       0.413588         4.5776         2.0382
     796.59480         8.4524       170.1102        74.0596         1.6761       0.404235         4.9493         2.0678
     796.74720         8.4498       170.3421        78.9098         1.8949       0.433808         4.9814         2.0734
     796.89960         8.4232       170.1190        84.1997         1.9540       0.469987         4.7342         2.0603
     797.05200         8.4137       169.6257        87.0459         1.9896       0.466776         4.5202         2.0617
     797.20440         8.4727       153.0783        89.5257         2.0289       0.446560         4.4190         2.0771
     797.35680         8.5941       152.5086       102.0511         2.0068       0.433287         4.4443         2.0940
     797.50920         8.6523       152.4851       107.7865         1.9575       0.411041         4.5675         2.1092
     797.66160         8.7096       153.6464       103.8937         1.9914       0.409562         4.7189         2.1167
     797.81400         8.7177       155.5995        97.9461         2.0611       0.421010         4.8896         2.1194
     797.96640         8.7182       157.1883        91.9483         2.1270       0.396736         5.0591         2.1199
     798.11880         8.7186       156.9287        84.8825         2.2803       0.409024         5.1729         2.1203
     798.27120         8.7247       155.9354        78.7129         2.2124       0.403669         5.2583         2.1309
     798.42360         8.7602       156.0796        75.8145         2.1270       0.416728         5.3373         2.1446
     798.57600         8.7606       157.6206        75.3454         2.1487       0.428893         5.3839         2.1463
     798.72840         8.7469       165.4379        72.5434         2.2067       0.451472         5.4792         2.1392
     798.88080         8.7207       167.4013        70.5036         2.0433       0.481724         5.6488         2.1412
     799.03320         8.5875       167.9655        71.6200         1.9942       0.452810         5.7419         2.1556
     799.18560         8.5445       168.0011        72.3880         1.7849       0.469751         5.6483         2.1417
     799.33800         8.3701       167.9106        67.2411         1.5164       0.469455         5.3916         2.0972
     799.49040         8.5073       167.7628        65.8910         1.4098       0.483111         5.1326         2.0754
     799.64280         8.7062       167.4493        66.8689         1.3836       0.446256         5.0145         2.0730
     799.79520         8.7508       167.6759        66.6000         1.3948       0.441608         4.9989         2.0646
     799.94760         8.8532       167.8896        68.9246         1.3581       0.476896         4.9869         2.0548
     800.10000         8.6862       167.6794        69.3518         1.3103       0.476638         4.9158         2.0468
     800.25240         8.6691       166.9708        65.1089         1.8265       0.454758         4.9319         2.0819
     800.40480         8.6165       165.8991        63.2915         2.1909       0.437151         5.0875         2.1314
     800.55720         8.5691       164.8703        63.6009         2.2827       0.491664         5.9715         2.3003
     800.70960         8.6427       164.9737        62.4716         2.1792       0.517120         5.9934         2.2585
     800.86200         8.5766       167.1179        61.7163         1.7431       0.478889         5.5715         2.1491
     801.01440         8.4344       167.9837        59.6933         1.5686       0.492469         5.2911         2.0896
     801.16680         8.4562       168.3113        58.4158         1.4602       0.468912         5.2181         2.0750
     801.31920         8.3917       168.1478        61.6158         1.6184       0.456855         5.2325         2.0931
     801.47160         8.4005       167.8625        62.2608         2.0854       0.493439         5.3958         2.1614
     801.62400         8.6162       167.6033        60.7446         2.2117       0.452568         5.5961         2.1861
     801.77640         8.6264       167.4629        64.6608         2.2774       0.491033         5.5635         2.1225
     801.92880         8.7430       167.5006        70.7717         2.1510       0.526603         5.3688         2.0778
     802.08120         8.7636       167.5167        75.6428         1.7965       0.524095         5.2204         2.0666
     802.23360         8.8913       167.4177        78.6585         1.7663       0.482352         5.0456         2.0554
     802.38600         8.9212       167.3856        78.7967         1.7762       0.486027         4.9119         2.0443
     802.53840         8.8703       166.4729        76.8910         1.6807       0.479261         5.2078         2.0502
     802.69080         8.8740       161.9128        73.6240         1.6369       0.471084         5.9390         2.0980
     802.84320         8.7743       156.7636        65.4985         1.6748       0.442092         6.6243         2.1612
     802.99560         8.7020       148.2501        55.0023         2.2361       0.449365         6.9548         2.2274
     803.14800         8.8145       142.6536        50.0055         2.9581       0.449884         7.0133         2.2952
     803.30040         8.8284       140.8913        48.8746         3.4399       0.432994         6.9603         2.3176
     803.45280         8.8304       146.5841        52.3762         3.5214       0.430083         6.8500         2.2497
     803.60520         8.8740       148.3539        57.9509         2.6402       0.450420         6.6784         2.1304
     803.75760         8.6802       153.7193        63.4671         2.2349       0.500437         6.4705         2.0411
