~Version Information Block
VERS .                  2.0:  CWLS LOG ASCII STANDARD - VERSION 2.0
WRAP .                   NO:  One line per depth step
~Well Information Block
#MNEM.UNIT        Data Type   Information
#---------- ----------------  -----------
STRT .M           375.05640:  START DEPTH
STOP .M          1661.16000:  STOP DEPTH
STEP .M             0.15240:  STEP
NULL .              -999.25:  NULL VALUE
COMP .                     :  COMPANY
WELL .                 KJ-06:  WELL
FLD  .                     :  FIELD
LOC  .                     :  LOCATION
CTRY .                     :  COUNTRY
STAT .                     :  STATE
CNTY .                     :  COUNTY
SRVC .                     :  SERVICE COMPANY
DATE .                     :  DATE
API  .                     :  API NUMBER
UWI  .                     :  UNIQUE WELL ID
~Curve Information Block
#MNEM.UNIT         API CODE   Curve Description
#---------- ----------------  -----------------
DEPTH.M      00 000 000 000:  Depth
CALI .IN     00 000 000 000:  Caliper
DTC  .US/F   00 000 000 000:  MonoDeltaT
GR   .GAPI   00 000 000 000:  Gamma API
LLD  .OHMM   00 000 000 000:  LLD
NPHI .V/V    00 000 000 000:  Neutron Porosity
PE   .       00 000 000 000:  Pe
RHOB .G/C3   00 000 000 000:  Density
~Parameter Information Block
#MNEM.UNIT            Value   Description
#---------- ----------------  -----------
PROJECT.             KARJISAN:  
SET  .               SPLICE:  
~Other Information Block
# 
~A       DEPTH           CALI            DTC             GR            LLD           NPHI             PE           RHOB 
# ...
    1304.23920         8.8548       156.3493        67.2040         1.4923       0.464825         5.3532         1.7736
    1304.39160         8.5971       156.6288        66.5732         1.4602       0.501178         5.3081         1.7696
    1304.54400         8.4143       157.1293        68.7520         1.3689       0.489890         5.3271         1.7593
    1304.69640         8.4593       141.1976        70.5514         1.3634       0.517243         5.3824         1.7572
    1304.84880         8.4457       141.4718        67.4586         1.3624       0.462511         5.3612         1.7519
    1305.00120         8.7335       140.6064        65.9257         1.3439       0.488387         5.2960         1.7379
    1305.15360         8.3123       140.4743        69.5822         1.3359       0.490312         5.2853         1.7261
    1305.30600         8.2494       140.7485        70.9183         1.3134       0.505025         5.3204         1.7180
    1305.45840         8.2758       141.1873        68.1916         1.3351       0.506925         5.3512         1.7183
    1305.61080         8.3462       141.7319        67.9152         1.3478       0.492887         5.3630         1.7215
    1305.76320         8.1229       142.9893        71.0942         1.3344       0.472760         5.3764         1.7155
    1305.91560         8.2667       142.8046        67.7393         1.3316       0.466074         5.3744         1.7104
    1306.06800         8.2943       141.7962        63.9697         1.3354       0.500378         5.3071         1.7163
    1306.22040         8.5544       140.5701        65.0754         1.3394       0.461851         5.2217         1.7229
    1306.37280         8.8136       139.4724        66.7717         1.3605       0.473940         5.2284         1.7251
    1306.52520         8.4804       138.7584        68.3416         1.3558       0.475962         5.3084         1.7301
    1306.67760         8.4750       139.8811        67.5474         1.3573       0.515522         5.3309         1.7374
    1306.83000         8.5394       140.3990        67.4930         1.3230       0.512790         5.2588         1.7428
    1306.98240         8.5078       158.8850        68.5300         1.3252       0.490389         5.1738         1.7481
    1307.13480         8.2619       158.7138        70.7432         1.3233       0.455628         5.1688         1.7536
    1307.28720         8.2353       158.5634        72.6690         1.3504       0.484597         5.2970         1.7662
    1307.43960         8.3080       157.6978        68.8107         1.5458       0.448580         5.4442         1.7897
    1307.59200         8.3645       157.2300        64.3550         1.6777       0.462378         5.4333         1.8072
    1307.74440         8.4295       157.0325        62.0723         1.6532       0.461046         5.3687         1.7987
    1307.89680         8.2205       156.9305        61.9341         1.6453       0.470789         5.3977         1.7711
    1308.04920         8.5808       156.9398        65.3142         1.5786       0.439294         5.4557         1.7449
    1308.20160         8.6682       157.0847        67.8900         1.5684       0.485419         5.4745         1.7330
    1308.35400         9.1617       157.4168        67.4854         1.5800       0.469220         5.4832         1.7378
    1308.50640         8.9672       157.9211        67.3171         1.6230       0.433757         5.5304         1.7483
    1308.65880         8.6216       157.7480        69.9533         1.6885       0.437800         5.6179         1.7627
    1308.81120         8.6342       157.4606        71.3296         1.7348       0.458931         5.7133         1.7771
    1308.96360         8.6709       157.4881        71.5206         1.7428       0.500650         5.7950         1.7827
    1309.11600         8.6440       157.8202        69.8067         1.7122       0.476027         5.8142         1.7848
    1309.26840         8.5680       157.8202        68.4647         1.6878       0.470729         5.7390         1.7907
    1309.42080         8.5678       158.6876        69.3937         1.6088       0.458316         5.6777         1.8334
    1309.57320         8.5568       157.9967        66.5288         1.7049       0.449430         5.6965         1.8877
    1309.72560         8.5252       157.6582        63.3875         1.7438       0.436277         5.6981         1.8822
    1309.87800         8.6640       157.1516        60.4765         1.7772       0.441518         5.6597         1.8669
    1310.03040         8.7060       156.2292        58.8179         1.7670       0.419351         5.6786         1.8829
    1310.18280         8.6045       156.2292        60.0535         1.7776       0.435276         5.7337         1.8824
    1310.33520         8.5453       155.2617        62.1268         2.2864       0.436949         5.7952         1.8773
    1310.48760         8.3790       154.2306        62.4376         2.2765       0.412091         5.8692         1.9222
    1310.64000         8.3896       154.0267        62.9767         2.1564       0.447434         5.8548         1.9592
    1310.79240         8.8267       153.9799        67.5843         2.0422       0.439526         5.7247         1.9205
    1310.94480         8.7166       154.1238        70.0980         1.9853       0.459421         5.6196         1.8800
    1311.09720         8.8256       154.1238        69.8217         1.9349       0.456220         5.5966         1.8735
    1311.24960         9.2297       154.1669        68.7009         1.9623       0.428711         5.6004         1.8772
    1311.40200         9.1680       153.8391        69.2923         2.0758       0.385240         5.6507         1.8885
    1311.55440         8.9133       153.1348        69.4582         2.1307       0.394661         5.7068         1.8986
    1311.70680         9.0588       152.3495        65.7246         2.4699       0.417729         5.6956         1.9433
    1311.85920         9.3656       152.0367        61.2891         1.9963       0.408861         5.6924         1.9865
    1312.01160         8.9604       152.3193        62.6545         1.7675       0.394813         5.7116         1.9346
    1312.16400         8.9192       152.5395        65.4231         1.7343       0.400174         5.6573         1.8620
    1312.31640         9.0282       150.6753        64.2336         1.6435       0.399350         5.5809         1.8500
    1312.46880         9.0870       149.6146        63.0901         2.1101       0.391157         5.5550         1.8637
    1312.62120         9.0692       149.0069        60.3928         2.5659       0.360326         5.5688         1.9026
    1312.77360         9.1874       148.3563        57.9174         2.6149       0.364415         5.5961         1.9366
    1312.92600         9.6095       147.0812        61.5446         2.5918       0.379710         5.5774         1.9031
    1313.07840         9.9169       147.1038        68.3173         2.3130       0.411745         5.5337         1.8557
    1313.23080         9.7666       153.0701        72.5894         1.8529       0.447546         5.4945         1.8456
    1313.38320         9.6996       155.3429        74.5119         1.6539       0.437674         5.4142         1.8433
    1313.53560         9.6891       157.0332        73.7639         1.5185       0.447750         5.3575         1.8420
    1313.68800         9.5816       157.9126        72.0403         1.5589       0.469633         5.3865         1.8515
    1313.84040         9.5690       158.3988        72.8907         1.5847       0.477636         5.4392         1.8683
    1313.99280         9.3981       158.6054        76.2274         1.5960       0.477296         5.5094         1.8835
    1314.14520         9.3928       158.4333        73.2609         1.6643       0.467741         5.5791         1.8961
    1314.29760         9.4097       157.9735        69.7288         1.6646       0.419526         5.6022         1.9127
