~Version Information Block
VERS .                  2.0:  CWLS LOG ASCII STANDARD - VERSION 2.0
WRAP .                   NO:  One line per depth step
~Well Information Block
#MNEM.UNIT        Data Type   Information
#---------- ----------------  -----------
STRT .M           375.05640:  START DEPTH
STOP .M          1661.16000:  STOP DEPTH
STEP .M             0.15240:  STEP
NULL .              -999.25:  NULL VALUE
COMP .                     :  COMPANY
WELL .                 KJ-06:  WELL
FLD  .                     :  FIELD
LOC  .                     :  LOCATION
CTRY .                     :  COUNTRY
STAT .                     :  STATE
CNTY .                     :  COUNTY
SRVC .                     :  SERVICE COMPANY
DATE .                     :  DATE
API  .                     :  API NUMBER
UWI  .                     :  UNIQUE WELL ID
~Curve Information Block
#MNEM.UNIT         API CODE   Curve Description
#---------- ----------------  -----------------
DEPTH.M      00 000 000 000:  Depth
CALI .IN     00 000 000 000:  Caliper
DTC  .US/F   00 000 000 000:  MonoDeltaT
GR   .GAPI   00 000 000 000:  Gamma API
LLD  .OHMM   00 000 000 000:  LLD
NPHI .V/V    00 000 000 000:  Neutron Porosity
PE   .       00 000 000 000:  Pe
RHOB .G/C3   00 000 000 000:  Density
~Parameter Information Block
#MNEM.UNIT            Value   Description
#---------- ----------------  -----------
PROJECT.             KARJISAN:  
SET  .               SPLICE:  
~Other Information Block
# 
~A       DEPTH           CALI            DTC             GR            LLD           NPHI             PE           RHOB 
# ...
    1222.55280         7.1585       138.5354        60.5017         2.0718       0.543958         6.6757         1.5828
    1222.70520         7.2656       141.9751        62.0681         1.9834       0.489972         6.7413         1.5282
    1222.85760         7.3704       143.7409        65.8503         1.8604       0.481770         6.7533         1.5122
    1223.01000         7.3925       144.5018        67.7351         1.8753       0.508498         6.6878         1.5253
    1223.16240         6.9877       144.8673        69.0796         1.8749       0.553795         6.5491         1.5300
    1223.31480         7.2161       144.9045        70.3101         1.9163       0.539527         6.4604         1.5148
    1223.46720         6.8777       143.8648        71.4938         1.8998       0.514361         6.4890         1.5113
    1223.61960         6.7754       171.9065        71.1411         1.9008       0.506344         6.4757         1.5242
    1223.77200         6.7596       172.2071        68.7964         1.9434       0.514863         6.3136         1.5290
    1223.92440         6.8207       170.6507        67.9319         1.9553       0.510450         6.0639         1.5332
    1224.07680         6.8502       170.4615        69.4280         2.0182       0.523988         5.8849         1.5525
    1224.22920         6.8723       170.4615        66.5037         2.0691       0.549604         5.8625         1.5668
    1224.38160         6.8382       170.3545        62.9477         2.0574       0.491702         5.9264         1.5567
    1224.53400         6.8020       169.0517        63.3707         2.0714       0.482731         6.0010         1.5489
    1224.68640         6.7902       166.9359        63.1069         2.0214       0.522350         6.0195         1.5636
    1224.83880         6.7874       165.2416        61.8696         2.0113       0.531103         5.9589         1.5955
    1224.99120         6.9053       164.2669        59.0349         2.2027       0.514362         5.9085         1.6848
    1225.14360         7.0725       167.0320        59.0625         2.1661       0.464161         5.8545         1.8204
    1225.29600         7.1218       167.2678        60.7287         2.1543       0.452910         5.7459         1.8621
    1225.44840         7.1567       167.3359        61.2430         2.1121       0.508957         5.6667         1.7791
    1225.60080         7.1640       167.8361        60.8158         2.0170       0.515171         5.6208         1.6963
    1225.75320         7.2828       168.6772        59.9027         1.8124       0.529686         5.6367         1.6674
    1225.90560         7.3172       169.6061        61.6744         1.8342       0.545961         5.7591         1.6620
    1226.05800         7.2472       170.1894        66.7843         1.8699       0.522222         5.8056         1.6671
    1226.21040         7.1759       170.9702        69.6115         1.8247       0.521328         5.7546         1.6738
    1226.36280         7.1779       171.2411        67.3271         1.8074       0.534564         5.5441         1.7017
    1226.51520         7.1979       170.7837        60.9792         1.7729       0.514031         5.5324         1.7228
    1226.66760         7.2335       170.4658        58.2064         1.7762       0.501283         5.6000         1.7515
    1226.82000         7.3208       170.6167        61.2849         1.8279       0.472136         5.6349         1.7739
    1226.97240         7.3624       170.3348        64.4319         1.8335       0.484853         5.6027         1.7889
    1227.12480         7.5468       170.4432        66.0772         1.8313       0.518799         5.6155         1.7845
    1227.27720         7.5337       171.0344        63.3171         1.7935       0.547699         5.7366         1.7307
    1227.42960         7.4288       171.0344        61.8448         1.7304       0.505119         5.8141         1.6794
    1227.58200         7.2942       171.5728        64.4555         1.7367       0.479049         5.7850         1.6853
    1227.73440         7.1752       171.5578        65.6241         1.7521       0.498774         5.7613         1.7205
    1227.88680         7.0981       170.8213        64.4178         1.8384       0.524677         5.7473         1.7552
    1228.03920         7.0338       170.3120        63.9571         1.9692       0.574446         5.7164         1.7742
    1228.19160         7.0031       169.6235        65.3770         2.0331       0.540097         5.7114         1.7663
    1228.34400         6.9615       168.8646        65.4943         2.0524       0.518201         5.7301         1.7492
    1228.49640         6.8012       168.5817        60.6943         2.0393       0.501553         5.7057         1.7473
    1228.64880         7.1219       169.3703        57.4106         1.9861       0.501667         5.6258         1.7476
    1228.80120         7.1232       171.0314        59.5090         1.9068       0.502364         5.5939         1.7358
    1228.95360         7.1221       170.8051        64.1247         1.8865       0.502623         5.6528         1.7470
    1229.10600         7.1340       170.3726        66.4744         1.8993       0.540850         5.6903         1.7915
    1229.25840         6.9749       170.2135        64.7781         1.9037       0.532703         5.6823         1.8227
    1229.41080         7.0533       170.2471        61.9341         1.8833       0.493943         5.7329         1.8320
    1229.56320         7.3377       170.5910        59.8106         1.8250       0.497340         5.7931         1.8365
    1229.71560         7.4068       171.4453        59.9614         1.8113       0.512314         5.7568         1.8199
    1229.86800         7.4251       172.3127        60.1674         1.8226       0.539293         5.6982         1.8024
    1230.02040         7.4477       172.3992        60.8770         1.8213       0.511908         5.6723         1.8156
    1230.17280         7.2400       171.7586        62.4275         1.8214       0.516385         5.6232         1.8261
    1230.32520         7.2354       170.5423        62.7316         1.8482       0.581786         5.5755         1.8069
    1230.47760         7.1945       169.1349        64.5877         1.8494       0.664185         5.6018         1.7534
    1230.63000         7.1413       167.7927        63.5891         1.8549       0.509321         5.7174         1.6847
    1230.78240         7.1351       166.9110        60.6725         1.8590       0.547959         5.8428         1.6598
    1230.93480         7.3422       164.6773        64.6436         1.8594       0.596561         5.8779         1.6813
    1231.08720         7.3654       161.8484        67.1655         1.8408       0.530942         5.8226         1.7108
    1231.23960         7.4095       159.7025        65.8285         1.8577       0.510438         5.7411         1.7331
    1231.39200         7.4119       157.6672        65.3720         2.0812       0.553272         5.7233         1.7742
    1231.54440         6.9981       153.4624        64.5435         2.4683       0.500369         5.8120         1.8242
    1231.69680         6.9807       152.5825        60.7915         2.4962       0.495321         5.9298         1.8256
    1231.84920         7.2255       153.1632        61.0922         2.4554       0.502880         5.9701         1.8078
    1232.00160         7.2725       155.1310        65.5177         2.2324       0.467512         5.9481         1.7988
    1232.15400         7.4969       137.1994        68.0232         2.0036       0.500177         5.9572         1.7814
    1232.30640         7.6276       136.2684        67.1428         1.9917       0.510848         6.0341         1.7644
    1232.45880         7.6340       136.4662        66.0019         1.9785       0.520291         6.1486         1.7531
    1232.61120         7.6827       137.2077        67.2693         1.9775       0.521539         6.2209         1.7562
