~Version Information Block
VERS .                  2.0:  CWLS LOG ASCII STANDARD - VERSION 2.0
WRAP .                   NO:  One line per depth step
~Well Information Block
#MNEM.UNIT        Data Type   Information
#---------- ----------------  -----------
STRT .M           375.05640:  START DEPTH
STOP .M          1661.16000:  STOP DEPTH
STEP .M             0.15240:  STEP
NULL .              -999.25:  NULL VALUE
COMP .                     :  COMPANY
WELL .                 KJ-06:  WELL
FLD  .                     :  FIELD
LOC  .                     :  LOCATION
CTRY .                     :  COUNTRY
STAT .                     :  STATE
CNTY .                     :  COUNTY
SRVC .                     :  SERVICE COMPANY
DATE .                     :  DATE
API  .                     :  API NUMBER
UWI  .                     :  UNIQUE WELL ID
~Curve Information Block
#MNEM.UNIT         API CODE   Curve Description
#---------- ----------------  -----------------
DEPTH.M      00 000 000 000:  Depth
CALI .IN     00 000 000 000:  Caliper
DTC  .US/F   00 000 000 000:  MonoDeltaT
GR   .GAPI   00 000 000 000:  Gamma API
LLD  .OHMM   00 000 000 000:  LLD
NPHI .V/V    00 000 000 000:  Neutron Porosity
PE   .       00 000 000 000:  Pe
RHOB .G/C3   00 000 000 000:  Density
~Parameter Information Block
#MNEM.UNIT            Value   Description
#---------- ----------------  -----------
PROJECT.             KARJISAN:  
SET  .               SPLICE:  
~Other Information Block
# 
~A       DEPTH           CALI            DTC             GR            LLD           NPHI             PE           RHOB 
# ...
    1385.92560         9.6969       127.2553        84.3606         3.0618       0.375557         6.1685         2.2454
    1386.07800         9.7365       130.4055        87.7607         2.9651       0.389694         6.0697         2.2540
    1386.23040         9.8362       132.4972        92.9200         2.8006       0.383375         6.0841         2.2540
    1386.38280         9.8360       133.1290        89.8918         2.6124       0.364408         6.2838         2.2219
    1386.53520        10.0343       133.0232        85.4588         2.5200       0.380772         6.3964         2.2063
    1386.68760         9.6490       132.3422        83.6770         2.4796       0.381625         6.3538         2.2102
    1386.84000         9.5877       130.8059        82.9105         2.4684       0.388006         6.3527         2.2204
    1386.99240         9.4993       128.4662        86.8586         2.8526       0.393697         6.3614         2.2525
    1387.14480         9.6193       121.1576        88.0653         3.1074       0.403044         6.2881         2.2896
    1387.29720        10.2625       122.0487        86.4162         3.1024       0.415642         6.2409         2.3180
    1387.44960        10.3647       123.3842        77.7961         3.0578       0.409870         6.2919         2.3120
    1387.60200         9.9404       124.4419        79.0032         2.7916       0.440504         6.3649         2.2625
    1387.75440         9.8334       124.9960        82.2270         2.5990       0.445093         6.4536         2.2103
    1387.90680         9.7594       139.2569        83.7474         2.4122       0.417948         6.4405         2.2052
    1388.05920         9.8841       139.2460        85.5015         2.3824       0.407098         6.2564         2.2457
    1388.21160         9.8901       136.6747        86.8359         2.3909       0.421672         6.1341         2.2764
    1388.36400         9.9503       134.3080        85.7553         2.3951       0.403894         6.1150         2.2848
    1388.51640         9.8316       133.5730        83.3051         2.7748       0.379564         6.1065         2.2994
    1388.66880        10.0443       122.7139        83.7223         3.2436       0.412633         6.1897         2.3125
    1388.82120         9.9276       121.7075        84.7049         3.2678       0.389175         6.3972         2.2913
    1388.97360         9.6605       121.3504        84.0565         3.2159       0.376204         6.5590         2.2607
    1389.12600        10.0755       121.8364        85.2753         2.9581       0.385200         6.5447         2.2465
    1389.27840         9.7305       123.0522        87.9191         2.6102       0.393652         6.4434         2.2433
    1389.43080         9.7122       124.4470        89.1404         2.4614       0.404957         6.3762         2.2389
    1389.58320         9.9346       125.5579        86.7555         2.3300       0.493552         6.4497         2.2011
    1389.73560         9.7375       127.8403        83.2498         2.6921       0.526662         6.7016         2.1718
    1389.88800         9.6356       131.3221        78.7062         2.7341       0.523478         6.8557         2.1924
    1390.04040         9.8500       140.2101        73.8435         2.6084       0.517985         6.6758         2.2083
    1390.19280         9.7381       143.8181        69.4934         2.2542       0.491041         6.3897         2.1933
    1390.34520         9.3583       146.4281        64.0803         1.8112       0.504051         6.2386         2.1840
    1390.49760         9.2687       147.8419        62.9268         1.5783       0.467836         6.1517         2.1782
    1390.65000         9.4960       148.8782        68.2946         1.5091       0.479368         6.0298         2.1507
    1390.80240         9.6775       156.4646        71.6747         1.3885       0.461813         5.8820         2.1349
    1390.95480         9.5964       160.4667        72.4638         1.3240       0.472057         5.6804         2.1419
    1391.10720         9.6712       161.9890        75.6704         1.3753       0.476646         5.4581         2.1443
    1391.25960         9.6996       163.0687        77.5829         1.3945       0.473404         5.3574         2.1448
    1391.41200         9.4998       163.5906        76.3490         1.2352       0.480436         5.4216         2.1557
    1391.56440         9.3322       163.9157        74.1702         1.4628       0.417657         5.5511         2.2762
    1391.71680         9.6717       163.5291        73.8435         1.6138       0.411577         5.6512         2.5107
    1391.86920         9.8460       162.7107        76.8340         1.6049       0.400556         5.7061         2.5916
    1392.02160         9.7617       161.8178        77.3542         1.5361       0.405069         5.6362         2.4237
    1392.17400         9.5947       160.0534        77.0149         1.4772       0.434159         5.4313         2.2328
    1392.32640         9.6184       158.9550        80.8795         1.3094       0.430992         5.2302         2.1689
    1392.47880         9.6157       157.9308        82.8821         1.2208       0.445369         5.1342         2.1691
    1392.63120         9.5901       157.0032        85.3560         1.1376       0.420931         5.1281         2.1902
    1392.78360         9.8793       156.3132        86.2471         1.0879       0.402409         5.2166         2.3800
    1392.93600         9.9955       155.6446        85.0994         1.0806       0.338143         5.7072         2.7502
    1393.08840        10.0561       155.8151        76.2208         1.6662       0.261250         6.3712         2.9866
    1393.24080         9.6321       155.7928        66.6838         1.5104       0.251349         6.4268         2.8892
    1393.39320         9.6970       154.6897        64.6005         1.3773       0.301064         6.0551         2.5913
    1393.54560         9.6733       143.4623        73.8611         1.3917       0.410827         5.8398         2.3529
    1393.69800         9.6726       138.9330        86.1649         1.3848       0.486494         5.7610         2.2756
    1393.85040         9.9098       136.3610        92.4300         1.3791       0.419217         5.6059         2.2886
    1394.00280         9.6877       133.5741        94.6716         1.5381       0.389520         5.4045         2.3146
    1394.15520         9.5668       154.1987        91.8495         2.0228       0.351001         5.3316         2.3860
    1394.30760         9.5563       142.7546        84.1746         3.2138       0.327810         5.4584         2.4790
    1394.46000         9.2783       142.3792        79.2013         3.1269       0.400198         5.6554         2.4122
    1394.61240         9.6191       140.0094        82.0712         3.0932       0.407133         5.6889         2.2667
    1394.76480        10.1052       136.1562        86.8083         2.5627       0.391936         5.5407         2.2427
    1394.91720         9.8706       135.6919        85.8584         2.2325       0.393544         5.3561         2.2870
    1395.06960         9.8340       162.0850        79.7592         2.4054       0.371964         5.2922         2.3197
    1395.22200         9.8517       165.3517        80.1236         3.4849       0.281354         5.3944         2.3655
    1395.37440        10.0358      -999.2500        78.8243         5.4984       0.261044         5.5886         2.5314
    1395.52680         9.9204      -999.2500        70.5112         7.9200       0.270331         5.9758         2.7760
    1395.67920         9.5327        73.5010        62.8363        10.0258       0.277286         6.4635         2.8683
    1395.83160         9.6411        74.1052        59.2225        10.1911       0.290760         6.5776         2.8209
    1395.98400         9.6560        75.3460        64.5980        11.5820       0.352990         6.4216         2.6959
