~Version Information Block
VERS .                  2.0:  CWLS LOG ASCII STANDARD - VERSION 2.0
WRAP .                   NO:  One line per depth step
~Well Information Block
#MNEM.UNIT        Data Type   Information
#---------- ----------------  -----------
STRT .M           375.05640:  START DEPTH
STOP .M          1661.16000:  STOP DEPTH
STEP .M             0.15240:  STEP
NULL .              -999.25:  NULL VALUE
COMP .                     :  COMPANY
WELL .                 KJ-06:  WELL
FLD  .                     :  FIELD
LOC  .                     :  LOCATION
CTRY .                     :  COUNTRY
STAT .                     :  STATE
CNTY .                     :  COUNTY
SRVC .                     :  SERVICE COMPANY
DATE .                     :  DATE
API  .                     :  API NUMBER
UWI  .                     :  UNIQUE WELL ID
~Curve Information Block
#MNEM.UNIT         API CODE   Curve Description
#---------- ----------------  -----------------
DEPTH.M      00 000 000 000:  Depth
CALI .IN     00 000 000 000:  Caliper
DTC  .US/F   00 000 000 000:  MonoDeltaT
GR   .GAPI   00 000 000 000:  Gamma API
LLD  .OHMM   00 000 000 000:  LLD
NPHI .V/V    00 000 000 000:  Neutron Porosity
PE   .       00 000 000 000:  Pe
RHOB .G/C3   00 000 000 000:  Density
~Parameter Information Block
#MNEM.UNIT            Value   Description
#---------- ----------------  -----------
PROJECT.             KARJISAN:  
SET  .               SPLICE:  
~Other Information Block
# 
~A       DEPTH           CALI            DTC             GR            LLD           NPHI             PE           RHOB 
# ...
    1130.65560         7.0463       169.1675        86.2269         3.3478       0.474401         6.2945         2.1273
    1130.80800         7.1011       168.0518        85.8290         3.9997       0.469902         6.5560         2.1371
    1130.96040         7.1185       166.9196        85.2259         4.1005       0.500222         6.6450         2.1016
    1131.11280         7.0999       165.4625        83.7516         3.3603       0.513092         6.4239         2.0444
    1131.26520         7.0751       154.4637        83.2071         2.7569       0.541013         6.0485         1.9987
    1131.41760         7.0884       158.8469        84.1746         2.5434       0.512552         5.7344         1.9934
    1131.57000         7.1068       138.3571        83.5338         2.4006       0.529192         5.5467         2.0056
    1131.72240         7.0567       137.2803        80.1160         2.6378       0.499693         5.4332         2.0137
    1131.87480         7.0906       138.5186        75.5297         2.6695       0.495952         5.3732         2.0134
    1132.02720         7.1226       141.0486        76.4763         2.6129       0.520883         5.4386         2.0036
    1132.17960         7.1634       143.1572        79.2448         2.5160       0.540889         5.6343         1.9852
    1132.33200         7.2158       144.1698        77.7077         2.4289       0.537284         5.8319         1.9676
    1132.48440         7.2178       144.9028        78.1810         2.1868       0.541535         5.9456         1.9621
    1132.63680         7.1899       145.6244        76.9119         2.1129       0.537758         6.0007         1.9620
    1132.78920         7.2388       146.2856        73.0544         2.0800       0.503788         6.0691         1.9514
    1132.94160         7.1698       146.8975        74.2941         2.0601       0.497149         6.1004         1.9450
    1133.09400         7.1010       147.9606        76.6480         2.0543       0.534880         5.9434         1.9584
    1133.24640         7.0982       148.1268        76.0239         1.9968       0.490077         5.6768         1.9877
    1133.39880         7.0871       148.4407        74.8680         1.9910       0.540501         5.5705         2.0209
    1133.55120         7.1542       149.0472        74.9643         1.9620       0.571127         5.6966         2.0208
    1133.70360         7.0955       149.5622        72.7360         1.9532       0.572880         5.8537         1.9843
    1133.85600         7.1191       149.6260        69.8502         1.9760       0.592603         5.8758         1.9620
    1134.00840         7.1353       149.0961        68.4387         1.8601       0.554331         5.8069         1.9636
    1134.16080         7.2071       147.7608        68.3089         1.7728       0.533469         5.7643         1.9668
    1134.31320         7.2554       145.2445        69.8167         1.7742       0.530318         5.6981         1.9681
    1134.46560         7.2086       146.0412        69.6869         1.7911       0.492003         5.7340         1.9740
    1134.61800         6.9040       148.9429        65.6786         2.3558       0.499091         5.8594         2.0293
    1134.77040         6.6149       151.6823        63.3247         3.1591       0.466720         5.9919         2.1295
    1134.92280         6.5855       149.7616        63.2912         4.0111       0.572273         6.1679         2.1497
    1135.07520         6.5788       147.1627        64.5016         4.2364       0.574342         6.3151         2.0186
    1135.22760         6.8053       146.4165        70.7005         3.1848       0.541394         6.3826         1.8740
    1135.38000         6.9267       147.5704        75.8732         1.9994       0.535556         6.4097         1.8269
    1135.53240         7.0572       153.2511        76.3590         1.7520       0.546978         6.3689         1.8396
    1135.68480         7.2296       166.6005        77.1129         1.5913       0.542827         6.2914         1.8543
    1135.83720         7.3590       167.2583        75.7224         1.7141       0.606247         6.1830         1.8553
    1135.98960         7.3660       166.9898        71.1738         1.7622       0.519934         6.0111         1.8616
    1136.14200         7.4162       166.7628        68.8408         1.8200       0.525789         5.8894         1.8800
    1136.29440         7.4615       166.9910        71.0272         1.8478       0.530321         5.8484         1.9017
    1136.44680         7.4526       167.2456        73.9800         1.7701       0.506151         5.7858         1.9248
    1136.59920         7.3965       167.1254        76.2082         1.6766       0.514339         5.7165         1.9411
    1136.75160         7.3965       166.8393        74.1685         1.6835       0.532233         5.6990         1.9381
    1136.90400         7.3619       167.1605        71.5633         1.6514       0.561311         5.7578         1.9197
    1137.05640         7.1634       166.9763        72.2837         1.6813       0.520807         5.8480         1.9091
    1137.20880         7.1799       166.2144        71.5591         1.6895       0.530441         5.8446         1.9243
    1137.36120         7.1270       164.9397        72.2837         1.8054       0.488046         5.7795         1.9506
    1137.51360         7.1162       163.5733        73.4983         2.1675       0.524510         5.7659         1.9654
    1137.66600         6.9391       162.9840        70.2984         2.3586       0.479724         5.8130         1.9663
    1137.81840         6.9635       163.8738        68.3885         2.4578       0.508368         5.8567         1.9653
    1137.97080         6.9603       167.2390        67.2450         2.8369       0.485995         6.0415         1.9789
    1138.12320         6.9632       168.5295        65.9890         2.7736       0.535532         6.1064         1.9886
    1138.27560         6.9571       163.4929        67.0761         2.6110       0.542893         6.1473         1.9953
    1138.42800         6.9688       158.4074        66.2617         2.5445       0.595165         6.1650         1.9856
    1138.58040         7.0940       161.6967        65.6046         2.3803       0.561387         6.1876         1.9454
    1138.73280         7.0952       166.8041        66.2943         2.0844       0.541031         6.2974         1.9122
    1138.88520         6.9354       167.8468        65.7598         2.2671       0.580520         6.4107         1.9118
    1139.03760         6.9161       167.5079        66.9686         2.2595       0.558504         6.4306         1.9104
    1139.19000         6.9719       167.3007        71.0967         2.2258       0.572745         6.4051         1.8933
    1139.34240         7.1073       161.2433        72.5141         2.1967       0.603973         6.2769         1.8862
    1139.49480         6.9903       159.2901        72.0826         2.0854       0.554980         6.0905         1.9030
    1139.64720         6.9387       159.1737        69.2136         2.3802       0.508216         6.0514         1.9674
    1139.79960         6.9174       158.3667        62.3823         3.1030       0.497472         6.1439         2.0536
    1139.95200         6.9501       158.1442        59.5517         3.2753       0.510228         6.2707         2.0296
    1140.10440         6.9032       157.5389        62.2960         3.1650       0.520777         6.3774         1.9142
    1140.25680         6.9538       157.5552        66.2432         2.2001       0.500065         6.3605         1.8587
    1140.40920         7.0338       157.8858        67.3062         2.3093       0.517331         6.2145         1.8878
    1140.56160         7.2140       168.4641        66.8388         2.5760       0.496950         6.0942         1.9471
    1140.71400         7.0958       168.6472        69.9926         2.5928       0.472428         6.1077         1.9743
