~Version Information Block
VERS .                  2.0:  CWLS LOG ASCII STANDARD - VERSION 2.0
WRAP .                   NO:  One line per depth step
~Well Information Block
#MNEM.UNIT        Data Type   Information
#---------- ----------------  -----------
STRT .M           375.05640:  START DEPTH
STOP .M          1661.16000:  STOP DEPTH
STEP .M             0.15240:  STEP
NULL .              -999.25:  NULL VALUE
COMP .                     :  COMPANY
WELL .                 KJ-06:  WELL
FLD  .                     :  FIELD
LOC  .                     :  LOCATION
CTRY .                     :  COUNTRY
STAT .                     :  STATE
CNTY .                     :  COUNTY
SRVC .                     :  SERVICE COMPANY
DATE .                     :  DATE
API  .                     :  API NUMBER
UWI  .                     :  UNIQUE WELL ID
~Curve Information Block
#MNEM.UNIT         API CODE   Curve Description
#---------- ----------------  -----------------
DEPTH.M      00 000 000 000:  Depth
CALI .IN     00 000 000 000:  Caliper
DTC  .US/F   00 000 000 000:  MonoDeltaT
GR   .GAPI   00 000 000 000:  Gamma API
LLD  .OHMM   00 000 000 000:  LLD
NPHI .V/V    00 000 000 000:  Neutron Porosity
PE   .       00 000 000 000:  Pe
RHOB .G/C3   00 000 000 000:  Density
~Parameter Information Block
#MNEM.UNIT            Value   Description
#---------- ----------------  -----------
PROJECT.             KARJISAN:  
SET  .               SPLICE:  
~Other Information Block
# 
~A       DEPTH           CALI            DTC             GR            LLD           NPHI             PE           RHOB 
# ...
     967.28280         9.8626       128.4108        72.9577         4.2530       0.465013         6.9499         2.1761
     967.43520         9.9150       129.6831        76.6861         4.2877       0.413027         6.6201         2.2224
     967.58760         9.6854       128.6231        78.3318         4.4568       0.386008         6.3481         2.2198
     967.74000         9.5960       125.5273        81.2637         4.6035       0.446456         6.3531         2.1998
     967.89240         9.6585       122.2273        85.1589         4.7826       0.427627         6.4559         2.1862
     968.04480         9.6892       120.8793        86.2144         4.8251       0.426449         6.4834         2.1807
     968.19720         9.8123       120.4117        85.0667         4.7401       0.414912         6.4740         2.1607
     968.34960         9.7363       122.3853        84.1537         4.6529       0.420544         6.5387         2.1182
     968.50200         9.6529       124.1662        87.7013         4.6182       0.407607         6.5697         2.1187
     968.65440         9.9074       125.6197        87.7934         4.5719       0.414827         6.6050         2.1275
     968.80680         9.7585       126.1758        83.6762         4.5468       0.416940         6.8820         2.0907
     968.95920         9.8153       125.9690        82.9139         4.5092       0.415554         7.1069         2.0810
     969.11160        10.1390       125.4524        84.6060         4.5239       0.401209         6.9522         2.1353
     969.26400         9.2462       125.1594        84.5306         4.6303       0.436531         6.6362         2.2019
     969.41640         8.1888       125.1546        85.0584         4.6593       0.437192         6.3874         2.2377
     969.56880         8.2535       125.4019        85.0165         4.7049       0.444594         6.2378         2.2513
     969.72120         8.3780       126.1186        82.2605         4.6174       0.459894         6.1321         2.2526
     969.87360         8.3924       127.0324        81.6699         4.4814       0.429089         6.0691         2.2325
     970.02600         8.4589       127.7667        82.0720         4.2928       0.440986         6.1565         2.1986
     970.17840         8.2668       138.9613        77.7161         4.1995       0.487666         6.3215         2.1791
     970.33080         8.4228       141.5714        75.1779         4.0754       0.493926         6.2933         2.1877
     970.48320         8.4164       141.8656        77.3768         4.0163       0.474170         5.9284         2.2036
     970.63560         8.5500       141.0145        78.9391         3.9944       0.468384         5.4094         2.2231
     970.78800         8.5312       140.1726        74.9685         4.0315       0.428460         5.1471         2.2443
     970.94040         8.3801       139.8130        71.0314         4.0534       0.422798         5.3237         2.2513
     971.09280         8.4968       139.7938        73.6659         4.0562       0.433482         5.6418         2.2493
     971.24520         8.6160       124.6545        76.9747         4.0892       0.448211         5.7207         2.2514
     971.39760         8.6851       123.8678        75.3496         4.1343       0.463438         5.5438         2.2686
     971.55000         8.6865       123.2002        72.1957         4.1444       0.440441         5.4071         2.2844
     971.70240         8.5415       122.5817        71.2366         4.2680       0.404604         5.4026         2.2874
     971.85480         8.5279       122.3953        68.6607         4.2723       0.404690         5.3337         2.2967
     972.00720         8.4914       122.7249        66.4995         4.2505       0.409610         5.1981         2.3043
     972.15960         8.4873       123.4217        67.4586         4.2345       0.453118         5.2178         2.3015
     972.31200         8.5508       124.3853        68.9036         4.0923       0.431758         5.4131         2.2995
     972.46440         8.5641       125.9123        65.5110         4.0005       0.440755         5.5344         2.3002
     972.61680         8.5652       128.4631        60.2755         3.9177       0.438052         5.5410         2.3087
     972.76920         8.5836       131.6806        60.3132         3.9317       0.438533         5.5591         2.3109
     972.92160         8.6159       133.9894        62.5247         4.0033       0.481293         5.5739         2.2938
     973.07400         8.6962       133.7417        63.4378         4.0905       0.481293         5.5437         2.2772
     973.22640         8.7607       132.7206        63.1446         4.1146       0.486509         5.5303         2.2721
     973.37880         8.8569       127.9216        60.5184         4.1142       0.511055         5.6505         2.2733
     973.53120         8.6401       122.1315        59.0860         4.0709       0.498107         5.9001         2.2738
     973.68360         8.6696       120.9977        60.5394         3.9589       0.464593         6.0961         2.2706
     973.83600         8.6384       120.0862        62.5414         3.9750       0.471107         6.0476         2.2675
     973.98840         8.6316       119.3999        64.9582         4.0898       0.475058         5.8368         2.2636
     974.14080         8.6428       119.1757        66.9393         4.2581       0.467622         5.6938         2.2507
     974.29320         8.6017       119.4193        63.8608         4.4566       0.423921         5.7161         2.2349
     974.44560         8.6122       119.3106        59.4965         4.6679       0.433595         5.9195         2.2177
     974.59800         8.6122       118.8146        58.8221         4.6891       0.406425         6.2230         2.1986
     974.75040         8.5083       118.2027        60.9289         4.5202       0.399188         6.2959         2.1843
     974.90280         8.2746       118.0285        61.5530         4.7923       0.386203         6.0491         2.1728
     975.05520         8.2836       118.4862        59.8273         4.8108       0.390469         5.8580         2.1737
     975.20760         8.2071       119.0807        57.3143         4.9412       0.385515         5.7959         2.1872
     975.36000         8.1458       119.3581        56.1122         4.7804       0.364239         5.6452         2.1916
     975.51240         8.1244       119.5201        56.8871         4.8940       0.366292         5.4996         2.1836
     975.66480         8.1097       119.9184        58.0389         4.8507       0.369124         5.5058         2.1758
     975.81720         8.1021       122.0146        58.2148         4.8161       0.360109         5.5012         2.1708
     975.96960         8.1090       123.6045        56.0285         4.7364       0.360806         5.3822         2.1656
     976.12200         8.1225       125.1956        56.2839         4.6244       0.346438         5.3263         2.1630
     976.27440         8.1930       126.6196        57.9258         4.4971       0.344231         5.2990         2.1533
     976.42680         8.3270       127.8745        59.1069         4.3421       0.342434         5.4116         2.1178
     976.57920         8.4416       128.8665        55.7338         4.1094       0.333320         5.5156         2.1039
     976.73160         8.4529       129.4836        47.3642         4.0582       0.319399         5.6060         2.0986
     976.88400         8.3857       129.8296        38.3056         4.0326       0.332028         5.6139         2.0892
     977.03640         8.3851       130.0622        34.0233         4.0318       0.338582         5.5354         2.0797
     977.18880         8.5723       130.2495        32.7192         4.0642       0.338586         5.4161         2.0737
     977.34120         8.5004       130.4106        32.6948         4.1184       0.338938         5.2738         2.0738
