~Version Information Block
VERS .                  2.0:  CWLS LOG ASCII STANDARD - VERSION 2.0
WRAP .                   NO:  One line per depth step
~Well Information Block
#MNEM.UNIT        Data Type   Information
#---------- ----------------  -----------
STRT .M           375.05640:  START DEPTH
STOP .M          1661.16000:  STOP DEPTH
STEP .M             0.15240:  STEP
NULL .              -999.25:  NULL VALUE
COMP .                     :  COMPANY
WELL .                 KJ-06:  WELL
FLD  .                     :  FIELD
LOC  .                     :  LOCATION
CTRY .                     :  COUNTRY
STAT .                     :  STATE
CNTY .                     :  COUNTY
SRVC .                     :  SERVICE COMPANY
DATE .                     :  DATE
API  .                     :  API NUMBER
UWI  .                     :  UNIQUE WELL ID
~Curve Information Block
#MNEM.UNIT         API CODE   Curve Description
#---------- ----------------  -----------------
DEPTH.M      00 000 000 000:  Depth
CALI .IN     00 000 000 000:  Caliper
DTC  .US/F   00 000 000 000:  MonoDeltaT
GR   .GAPI   00 000 000 000:  Gamma API
LLD  .OHMM   00 000 000 000:  LLD
NPHI .V/V    00 000 000 000:  Neutron Porosity
PE   .       00 000 000 000:  Pe
RHOB .G/C3   00 000 000 000:  Density
~Parameter Information Block
#MNEM.UNIT            Value   Description
#---------- ----------------  -----------
PROJECT.             KARJISAN:  
SET  .               SPLICE:  
~Other Information Block
# 
~A       DEPTH           CALI            DTC             GR            LLD           NPHI             PE           RHOB 
# ...
     548.64000         9.3770       156.5508        44.8663         8.0204       0.333200         5.3918         1.9718
     548.79240         9.4005       156.5573        46.3616         8.5200       0.336465         5.1501         1.9789
     548.94480         9.4355       156.5748        47.6851         8.7166       0.342181         5.0617         1.9821
     549.09720         9.3243       156.4422        46.5291         9.4986       0.322997         4.9246         1.9826
     549.24960         9.3368       156.1523        40.7114        10.0417       0.309563         4.5937         1.9901
     549.40200         9.4464       155.6181        37.8591         9.9994       0.304135         4.5131         1.9956
     549.55440         9.6092       155.5653        39.0695         9.8690       0.309976         4.8315         1.9930
     549.70680         9.7005       155.6478        41.8674         9.2974       0.329417         4.7371         1.9947
     549.85920         9.6896       155.7981        43.7899         8.9519       0.329930         4.2035         1.9961
     550.01160         9.6631       155.9986        44.2925         8.9947       0.329111         4.2231         1.9898
     550.16400         9.5402       156.1644        44.7956         8.8419       0.317941         4.7818         1.9909
     550.31640         9.5596       156.1379        44.9498         8.6050       0.323175         5.1563         1.9968
     550.46880         9.5122       155.8940        43.0748         8.6652       0.332391         5.1392         1.9959
     550.62120         9.5163       155.5179        43.2617         8.6454       0.325485         4.4652         1.9844
     550.77360         9.5686       155.0710        47.7019         8.3286       0.324836         4.0211         1.9840
     550.92600         9.4963       154.4877        51.1071         8.1709       0.326564         3.7767         1.9880
     551.07840         9.5022       153.6739        50.8516         8.1489       0.320903         3.5934         1.9896
     551.23080         9.5673       151.7070        48.2966         8.5496       0.318297         3.3904         1.9989
     551.38320         9.7105       150.7227        45.0841         9.4629       0.318389         3.2336         2.0115
     551.53560         9.7715       149.8138        41.0842        10.3783       0.305457         3.1980         2.0151
     551.68800         9.7667       149.2146        38.5586        10.9435       0.283368         3.2655         2.0208
     551.84040         9.8296       148.9582        39.1366        11.1092       0.270318         3.4675         2.0378
     551.99280         9.8187       148.8066        40.0790        10.8458       0.277227         3.8130         2.0641
     552.14520        10.0020       148.9751        41.1303        10.0167       0.278435         4.1032         2.0836
     552.29760        10.0987       149.2870        43.5805         9.7318       0.271453         4.0249         2.0903
     552.45000        10.0890       148.8423        44.6066         9.9239       0.281022         3.6302         2.0929
     552.60240         9.9617       147.5192        42.1732        10.3117       0.278448         3.3706         2.0855
     552.75480         9.8558       146.5380        38.2738        10.7287       0.273119         3.7196         2.0760
     552.90720         9.6408       146.6429        35.8780        10.5443       0.277209         4.5767         2.0688
     553.05960         9.8515       147.2689        36.6612         9.7541       0.304150         5.1497         2.0509
     553.21200         9.7075       147.6830        38.7093         9.1894       0.320612         5.0968         2.0198
     553.36440         9.8367       147.6580        37.1387         8.8024       0.328222         4.8195         1.9925
     553.51680         9.6246       146.4007        34.5084         9.5981       0.334043         4.5521         2.0207
     553.66920         9.5721       145.5854        34.4943        10.8156       0.313955         4.2629         2.0981
     553.82160         9.3618       144.8697        34.7729        12.0230       0.283999         3.9822         2.1423
     553.97400         9.4076       144.2750        35.6679        12.6634       0.275712         3.8677         2.1485
     554.12640         9.3628       143.9789        49.3367        11.5807       0.284807         4.1121         2.1546
     554.27880         9.5430       143.7536        52.3169         9.0053       0.295355         4.5625         2.1569
     554.43120         9.7192       142.9590        58.8621         8.5301       0.319380         4.8777         2.1871
     554.58360         9.8183       141.6955        68.1832         7.6073       0.331931         4.7524         2.2480
     554.73600        10.4583       140.4326        78.0093         6.6808       0.313522         4.4088         2.2574
     554.88840        10.6079       139.3308        84.3757         6.9320       0.336036         4.4942         2.2234
     555.04080        10.6575       138.5472        87.3997         6.3618       0.371184         4.9022         2.2106
     555.19320        10.6029       139.5670        84.6730         6.2705       0.334939         5.1648         2.2008
     555.34560        10.5984       140.5859        74.1559         6.6758       0.335118         5.1943         2.1776
     555.49800         9.7995       141.6417        63.0734         6.8652       0.344299         5.1023         2.1494
     555.65040         9.7871       142.2162        57.6494         6.8764       0.336670         5.0581         2.1123
     555.80280         9.8138       143.5991        58.6462         6.9218       0.346360         5.2849         2.0816
     555.95520         9.8944       146.4016        63.2283         6.0384       0.354736         5.7098         2.0827
     556.10760        10.0270       149.9798        69.4942         4.9210       0.376519         5.9105         2.0997
     556.26000        10.0318       153.2557        74.6166         4.0928       0.380381         5.8283         2.0993
     556.41240        10.0522       156.0656        78.2522         3.4291       0.385880         5.6848         2.0865
     556.56480        10.0807       158.7397        82.7170         3.1390       0.376746         5.4139         2.0781
     556.71720        10.1115       161.3842        82.5160         3.0371       0.381696         4.9650         2.0689
     556.86960        10.1188       163.9428        78.3025         3.0323       0.396608         4.6258         2.0605
     557.02200        10.1226       166.2212        76.0533         3.0176       0.404949         4.6810         2.0583
     557.17440        10.0080       167.9928        77.8627         2.9717       0.419225         4.9405         2.0516
     557.32680         9.8328       169.2090        77.9883         2.8756       0.429937         4.8854         2.0431
     557.47920         9.8299       169.9717        75.1528         2.8077       0.431556         4.5699         2.0362
     557.63160         9.7507       170.4708        78.3360         2.8218       0.378942         4.4888         2.0244
     557.78400         9.7281       170.1061        82.2731         2.9243       0.390975         4.5252         2.0206
     557.93640         9.7248       169.4489        81.5527         3.0996       0.403334         4.4057         2.0287
     558.08880         9.7115       168.9529        81.3851         3.1497       0.416258         4.4700         2.0305
     558.24120         9.6263       168.7922        79.8379         2.8944       0.422977         4.8487         2.0198
     558.39360         9.5213       169.0795        75.0514         2.7371       0.449301         5.0923         2.0111
     558.54600         9.4743       169.5167        72.0765         2.7349       0.411061         4.9696         2.0171
     558.69840         9.4362       169.7578        72.3159         2.5721       0.456573         4.6827         2.0253
