~Version Information Block
VERS .                  2.0:  CWLS LOG ASCII STANDARD - VERSION 2.0
WRAP .                   NO:  One line per depth step
~Well Information Block
#MNEM.UNIT        Data Type   Information
#---------- ----------------  -----------
STRT .M           375.05640:  START DEPTH
STOP .M          1661.16000:  STOP DEPTH
STEP .M             0.15240:  STEP
NULL .              -999.25:  NULL VALUE
COMP .                     :  COMPANY
WELL .                 KJ-06:  WELL
FLD  .                     :  FIELD
LOC  .                     :  LOCATION
CTRY .                     :  COUNTRY
STAT .                     :  STATE
CNTY .                     :  COUNTY
SRVC .                     :  SERVICE COMPANY
DATE .                     :  DATE
API  .                     :  API NUMBER
UWI  .                     :  UNIQUE WELL ID
~Curve Information Block
#MNEM.UNIT         API CODE   Curve Description
#---------- ----------------  -----------------
DEPTH.M      00 000 000 000:  Depth
CALI .IN     00 000 000 000:  Caliper
DTC  .US/F   00 000 000 000:  MonoDeltaT
GR   .GAPI   00 000 000 000:  Gamma API
LLD  .OHMM   00 000 000 000:  LLD
NPHI .V/V    00 000 000 000:  Neutron Porosity
PE   .       00 000 000 000:  Pe
RHOB .G/C3   00 000 000 000:  Density
~Parameter Information Block
#MNEM.UNIT            Value   Description
#---------- ----------------  -----------
PROJECT.             KARJISAN:  
SET  .               SPLICE:  
~Other Information Block
# 
~A       DEPTH           CALI            DTC             GR            LLD           NPHI             PE           RHOB 
# ...
     630.32640        10.5494       146.8321        67.4042         3.5110       0.361084         4.2893         2.1594
     630.47880        10.5322       145.4949        67.3916         3.6275       0.354924         4.2725         2.1768
     630.63120        10.4625       143.9032        70.5497         3.8765       0.359012         4.4323         2.1995
     630.78360        10.3413       143.2955        68.8157         4.0689       0.362042         4.5836         2.2165
     630.93600        10.2499       139.3999        67.9613         4.2372       0.342207         4.5237         2.2139
     631.08840        10.2643       138.4859        71.0816         4.3858       0.347480         4.3738         2.1976
     631.24080        10.2464       137.6111        73.8208         4.3904       0.345178         4.3901         2.1854
     631.39320        10.2707       137.0529        73.7915         4.3280       0.370833         4.6361         2.1779
     631.54560        10.2866       137.9678        72.5141         4.3149       0.376264         4.7175         2.1656
     631.69800        10.2901       141.0975        70.6000         4.3042       0.367817         4.3817         2.1498
     631.85040        10.3078       141.9725        70.8764         4.2292       0.375147         4.1335         2.1408
     632.00280        10.3314       142.2603        72.1497         4.1485       0.364025         4.2096         2.1409
     632.15520        10.3437       142.1248        70.6544         4.1443       0.366780         4.2845         2.1525
     632.30760        10.4233       141.6015        69.1885         4.2541       0.373831         4.3745         2.1800
     632.46000        10.5410       141.0808        70.0136         4.3728       0.362648         4.7289         2.2033
     632.61240        10.5625       140.8241        69.1005         4.4049       0.345364         5.0911         2.2063
     632.76480        10.5839       140.8234        67.0440         4.3173       0.345584         5.0078         2.1889
     632.91720        10.6213       141.1906        66.6335         4.1521       0.371074         4.7037         2.1645
     633.06960        10.6252       142.0274        67.7183         4.0854       0.378913         4.6060         2.1652
     633.22200        10.6946       143.2069        70.2858         4.0891       0.363957         4.6656         2.1861
     633.37440        10.7959       144.3748        68.8492         3.9820       0.347253         4.7682         2.1963
     633.52680        10.9532       145.4985        67.8984         3.8131       0.345710         4.9316         2.1901
     633.67920        11.0189       147.1081        69.8670         3.8263       0.335440         5.1675         2.1800
     633.83160        11.0642       149.6366        69.0754         3.8731       0.357986         5.5864         2.1263
     633.98400        10.7145       152.7141        68.2209         3.8305       0.389526         6.1553         1.9966
     634.13640        10.0878       155.6804        69.4775         3.2598       0.448458         6.3585         1.9026
     634.28880        10.0797       158.7080        68.6858         2.5735       0.457289         5.9008         1.9024
     634.44120        10.1477       165.9377        65.4021         2.0624       0.481653         5.2988         1.9313
     634.59360        10.1548       169.3105        62.2566         1.8523       0.458370         5.0231         1.9578
     634.74600        10.1527       171.8816        60.4514         1.6239       0.484729         4.9934         1.9645
     634.89840        10.1503       173.4135        60.8493         1.7269       0.472980         5.0192         1.9544
     635.05080        10.1606       173.9189        61.8671         1.8487       0.453176         5.0471         1.9489
     635.20320        10.1631       173.6251        62.5540         1.8786       0.430407         5.0855         1.9515
     635.35560        10.1611       172.8913        62.8598         1.7670       0.442437         5.1178         1.9603
     635.50800        10.2148       171.9143        61.6242         1.6450       0.502926         5.0363         1.9720
     635.66040        10.3668       170.7491        61.2514         1.7410       0.485647         4.7008         1.9852
     635.81280        10.7062       168.8966        66.5204         1.7419       0.440242         4.2982         1.9962
     635.96520        10.8523       175.1400        76.9203         1.7891       0.412343         4.1089         2.0088
     636.11760        11.0743       177.4784        84.5222         2.0579       0.389704         4.1711         2.0368
     636.27000        11.4116       172.3595        82.8301         2.4843       0.355019         4.4488         2.0784
     636.42240        11.5467       170.4242        79.8396         3.2599       0.331693         4.7727         2.1118
     636.57480        11.6102       168.9706        79.1485         4.2936       0.296601         5.0336         2.1232
     636.72720        11.6838       168.1955        82.4951         5.1537       0.299050         5.2466         2.1238
     636.87960        11.7293       167.9630        85.6196         4.9114       0.299293         5.3578         2.1225
     637.03200        11.7369       157.5746        80.9160         4.3208       0.308789         5.4070         2.1129
     637.18440        11.7335       156.8670        81.3014         4.1641       0.331786         5.4510         2.1038
     637.33680        11.7258       157.3432        83.8582         4.1009       0.343996         5.4734         2.1047
     637.48920        11.7232       157.6526        81.4025         4.2524       0.333563         5.4745         2.0976
     637.64160        11.7074       158.7649        88.0992         4.4539       0.328729         5.4163         2.0831
     637.79400        11.6625       160.1420       100.6254         4.4563       0.315362         5.2598         2.0808
     637.94640        11.6327       162.8829       105.3903         4.3616       0.310849         5.1288         2.0892
     638.09880        11.5487       164.2485        93.7877         4.3766       0.355154         5.1791         2.0907
     638.25120        11.3244       165.7140        87.0894         3.9804       0.375510         5.3506         2.0742
     638.40360        11.1802       166.8958        79.8731         3.5533       0.386343         5.4704         2.0587
     638.55600        11.1450       167.8899        77.6239         3.2031       0.416097         5.3456         2.0576
     638.70840        11.1438       169.0340        78.8972         2.7265       0.420207         4.8800         2.0489
     638.86080        11.1494       170.5276        78.8721         2.3915       0.445813         4.2692         2.0262
     639.01320        11.1437       172.1830        84.2416         2.2189       0.389866         3.7931         2.0027
     639.16560        11.1842       173.4816        92.7651         2.0391       0.413260         3.5111         1.9827
     639.31800        11.2792       174.2092        94.4069         1.9220       0.397106         3.3662         1.9673
     639.47040        11.3144       174.8571        93.1671         1.8875       0.402708         3.4325         1.9596
     639.62280        11.3396       175.9620        92.7734         1.8620       0.395790         3.7189         1.9620
     639.77520        11.4192       178.0946        92.4174         1.8642       0.418572         3.9298         1.9748
     639.92760        11.4190       177.8562        90.5452         1.8115       0.407121         3.9134         1.9944
     640.08000        11.4270       177.6189        92.4551         1.9089       0.397277         3.8649         2.0033
     640.23240        11.4843       178.5284        96.0613         1.6153       0.380434         3.8915         1.9941
     640.38480        11.6693       181.3432        92.2415         1.5691       0.424827         3.9440         1.9880
