~Version Information Block
VERS .                  2.0:  CWLS LOG ASCII STANDARD - VERSION 2.0
WRAP .                   NO:  One line per depth step
~Well Information Block
#MNEM.UNIT        Data Type   Information
#---------- ----------------  -----------
STRT .M           375.05640:  START DEPTH
STOP .M          1661.16000:  STOP DEPTH
STEP .M             0.15240:  STEP
NULL .              -999.25:  NULL VALUE
COMP .                     :  COMPANY
WELL .                 KJ-06:  WELL
FLD  .                     :  FIELD
LOC  .                     :  LOCATION
CTRY .                     :  COUNTRY
STAT .                     :  STATE
CNTY .                     :  COUNTY
SRVC .                     :  SERVICE COMPANY
DATE .                     :  DATE
API  .                     :  API NUMBER
UWI  .                     :  UNIQUE WELL ID
~Curve Information Block
#MNEM.UNIT         API CODE   Curve Description
#---------- ----------------  -----------------
DEPTH.M      00 000 000 000:  Depth
CALI .IN     00 000 000 000:  Caliper
DTC  .US/F   00 000 000 000:  MonoDeltaT
GR   .GAPI   00 000 000 000:  Gamma API
LLD  .OHMM   00 000 000 000:  LLD
NPHI .V/V    00 000 000 000:  Neutron Porosity
PE   .       00 000 000 000:  Pe
RHOB .G/C3   00 000 000 000:  Density
~Parameter Information Block
#MNEM.UNIT            Value   Description
#---------- ----------------  -----------
PROJECT.             KARJISAN:  
SET  .               SPLICE:  
~Other Information Block
# 
~A       DEPTH           CALI            DTC             GR            LLD           NPHI             PE           RHOB 
# ...
    1048.96920         7.6787       157.4200        67.0147         2.5551       0.473404         5.5229         2.1299
    1049.12160         7.6501       157.4754        70.5623         2.5534       0.452262         5.7548         2.1202
    1049.27400         7.6374       157.5376        70.5539         2.5349       0.496433         5.9476         2.1172
    1049.42640         7.5827       157.6617        69.1005         2.4642       0.527134         6.1580         2.1246
    1049.57880         7.5093       157.9334        67.7351         2.3668       0.512629         6.3319         2.1357
    1049.73120         7.4836       158.5466        65.5864         2.2717       0.487196         6.4128         2.1368
    1049.88360         7.4616       158.7188        65.6692         2.2349       0.450250         6.4528         2.1332
    1050.03600         7.4575       158.8736        65.4206         2.2596       0.502886         6.5156         2.1355
    1050.18840         7.4525       159.0239        73.8509         2.3859       0.495458         6.5659         2.1445
    1050.34080         7.5105       159.0634        75.9704         2.3649       0.470452         6.5754         2.1487
    1050.49320         7.5599       159.0049        77.9017         2.3928       0.474918         6.5883         2.1454
    1050.64560         7.5510       158.9199        79.6898         2.4342       0.464814         6.8498         2.1329
    1050.79800         7.5621       158.8890        79.6763         2.4085       0.497527         7.0708         2.1478
    1050.95040         7.6265       158.9396        77.7311         2.3630       0.556248         7.1021         2.1655
    1051.10280         7.6360       160.3583        74.8762         2.1965       0.510662         6.9795         2.1629
    1051.25520         7.6475       161.8087        76.2503         2.0221       0.503864         6.8941         2.1046
    1051.40760         7.6871       163.2503        78.5629         1.7630       0.515079         6.9893         2.0019
    1051.56000         7.6782       164.4249        81.8500         1.6712       0.507244         7.1298         1.9344
    1051.71240         7.6540       165.2330        79.4417         1.6688       0.463539         7.0814         1.9246
    1051.86480         7.6401       165.6424        75.5213         1.7390       0.486947         6.8895         1.9531
    1052.01720         7.5734       165.7232        70.2816         1.8170       0.524803         6.6321         2.0095
    1052.16960         7.5568       165.5582        65.6953         1.9465       0.535553         6.3679         2.0499
    1052.32200         7.5672       165.1075        65.3225         2.0164       0.518207         6.2966         2.0530
    1052.47440         7.5192       163.9114        63.8817         2.0527       0.522573         6.3724         2.0525
    1052.62680         7.5329       163.7211        62.8137         2.0660       0.585125         6.3654         2.0683
    1052.77920         7.5662       163.7433        60.9540         2.0651       0.516211         6.2560         2.0846
    1052.93160         7.6070       163.8757        56.8452         2.0550       0.514911         6.1422         2.0868
    1053.08400         7.6191       164.2222        54.1730         2.0432       0.516149         6.0825         2.0741
    1053.23640         7.6180       164.8031        54.4704         2.0078       0.531006         6.0048         2.0528
    1053.38880         7.6175       165.4845        54.7887         1.9758       0.543717         5.8802         2.0366
    1053.54120         7.5948       165.8914        54.8850         1.9525       0.486625         5.8941         2.0341
    1053.69360         7.5454       165.9760        53.9803         1.9300       0.486861         6.0535         2.0362
    1053.84600         7.5328       165.8677        51.0945         1.9438       0.520466         6.0711         2.0382
    1053.99840         7.5927       141.7789        50.1228         1.9569       0.558960         5.9920         2.0414
    1054.15080         7.5949       140.7838        49.6788         1.9419       0.539075         6.1362         2.0408
    1054.30320         7.5969       163.0537        49.2265         1.9493       0.569379         6.4240         2.0376
    1054.45560         7.5651       161.1104        51.0359         1.8492       0.528753         6.5354         2.0341
    1054.60800         7.4672       160.7777        53.4777         1.8652       0.528477         6.3921         2.0349
    1054.76040         7.5153       160.7670        51.4254         1.9111       0.512660         6.1832         2.0344
    1054.91280         7.4485       160.5321        50.8055         1.9178       0.505487         6.0644         2.0223
    1055.06520         7.3620       159.5849        51.8107         1.9940       0.507805         6.0725         2.0073
    1055.21760         7.3530       158.9978        52.6903         2.0221       0.487918         6.1656         1.9987
    1055.37000         7.3698       158.6053        54.7133         1.9919       0.516128         6.1967         2.0026
    1055.52240         7.3740       158.3935        55.7897         2.0094       0.488424         6.1684         2.0151
    1055.67480         7.3797       158.2856        54.7719         2.0094       0.463328         6.1638         2.0236
    1055.82720         7.4206       158.2423        51.6139         2.0190       0.482830         6.0613         2.0312
    1055.97960         7.4656       158.3020        51.3008         2.0419       0.486434         5.8823         2.0403
    1056.13200         7.4892       158.3915        52.4094         2.0544       0.486123         5.8494         2.0415
    1056.28440         7.5056       158.3929        54.3035         2.0553       0.503643         5.9273         2.0450
    1056.43680         7.5836       158.0959        52.4401         2.0482       0.478126         5.9710         2.0596
    1056.58920         7.5697       157.8715        53.8882         2.0218       0.438552         5.9519         2.0710
    1056.74160         7.6019       158.0545        55.3457         1.9892       0.491238         5.8408         2.0726
    1056.89400         7.6192       158.6771        54.9436         1.9548       0.522263         5.7227         2.0796
    1057.04640         7.6483       159.2127        53.7248         1.9717       0.499785         5.7923         2.1213
    1057.19880         7.6649       159.0007        50.7427         2.1085       0.478732         6.0961         2.1904
    1057.35120         7.6667       157.8757        48.1961         2.3411       0.452278         6.4419         2.2148
    1057.50360         7.6770       156.6182        46.3616         2.3732       0.449743         6.5137         2.1826
    1057.65600         7.6729       154.4707        48.6233         2.2630       0.497666         6.2257         2.1578
    1057.80840         7.6840       153.2779        52.5144         2.1036       0.487746         5.8669         2.1515
    1057.96080         7.6891       152.4687        50.4495         1.9423       0.471006         5.7285         2.1559
    1058.11320         7.6720       152.7105        46.9857         1.9314       0.451319         5.7666         2.1614
    1058.26560         7.6799       153.8623        46.1982         2.0180       0.482896         5.7998         2.1594
    1058.41800         7.6722       154.9816        47.7940         2.0803       0.486949         5.8192         2.1705
    1058.57040         7.6750       155.4071        48.4013         2.0868       0.466587         5.7913         2.1896
    1058.72280         7.6612       155.4048        49.1092         2.1486       0.501520         5.6624         2.2188
    1058.87520         7.6597       155.4025        49.3102         2.1212       0.487863         5.6195         2.2375
    1059.02760         7.6678       155.5829        49.2265         2.0429       0.462343         5.6347         2.2006
