~Version Information Block
VERS .                  2.0:  CWLS LOG ASCII STANDARD - VERSION 2.0
WRAP .                   NO:  One line per depth step
~Well Information Block
#MNEM.UNIT        Data Type   Information
#---------- ----------------  -----------
STRT .M           375.05640:  START DEPTH
STOP .M          1661.16000:  STOP DEPTH
STEP .M             0.15240:  STEP
NULL .              -999.25:  NULL VALUE
COMP .                     :  COMPANY
WELL .                 KJ-06:  WELL
FLD  .                     :  FIELD
LOC  .                     :  LOCATION
CTRY .                     :  COUNTRY
STAT .                     :  STATE
CNTY .                     :  COUNTY
SRVC .                     :  SERVICE COMPANY
DATE .                     :  DATE
API  .                     :  API NUMBER
UWI  .                     :  UNIQUE WELL ID
~Curve Information Block
#MNEM.UNIT         API CODE   Curve Description
#---------- ----------------  -----------------
DEPTH.M      00 000 000 000:  Depth
CALI .IN     00 000 000 000:  Caliper
DTC  .US/F   00 000 000 000:  MonoDeltaT
GR   .GAPI   00 000 000 000:  Gamma API
LLD  .OHMM   00 000 000 000:  LLD
NPHI .V/V    00 000 000 000:  Neutron Porosity
PE   .       00 000 000 000:  Pe
RHOB .G/C3   00 000 000 000:  Density
~Parameter Information Block
#MNEM.UNIT            Value   Description
#---------- ----------------  -----------
PROJECT.             KARJISAN:  
SET  .               SPLICE:  
~Other Information Block
# 
~A       DEPTH           CALI            DTC             GR            LLD           NPHI             PE           RHOB 
# ...
     885.59640         9.1672       126.2817        77.1087         4.2699       0.410643         5.7946         2.4459
     885.74880         9.2205       125.7294        68.9078         4.4518       0.389099         5.4284         2.4175
     885.90120         9.1972       124.5481        62.2231         4.6315       0.351438         4.9394         2.3822
     886.05360         9.1555       123.1748        64.3048         4.8517       0.344251         4.8329         2.3744
     886.20600         9.1306       121.9237        65.7414         5.0115       0.331226         5.0146         2.3687
     886.35840         9.3161       120.8297        66.7801         4.9972       0.338042         5.1690         2.3625
     886.51080         9.3511       118.8127        64.9665         5.0938       0.343079         5.1712         2.3629
     886.66320         9.0979       118.2706        61.8001         5.2029       0.333690         4.9499         2.3561
     886.81560         9.1000       118.1920        63.4755         5.2616       0.325220         4.6026         2.3459
     886.96800         9.1757       118.3969        64.5351         5.3149       0.332317         4.4309         2.3430
     887.12040         9.2657       118.8530        63.6723         5.3561       0.339752         4.4868         2.3411
     887.27280         9.2860       119.9789        62.9100         5.3386       0.346752         4.5349         2.3331
     887.42520         9.2136       122.3002        61.4189         5.2622       0.350988         4.5625         2.3131
     887.57760         9.0891       126.3789        60.6273         4.9935       0.351707         4.7645         2.2873
     887.73000         8.8593       141.5964        58.8263         4.6698       0.394374         5.1042         2.2648
     887.88240         8.8518       145.9451        54.0390         3.8366       0.406532         5.3782         2.2363
     888.03480         8.8306       149.8019        50.7594         2.9783       0.433383         5.5129         2.1985
     888.18720         8.7162       153.3216        51.3755         2.6580       0.457371         5.5356         2.1715
     888.33960         8.6672       156.1087        50.7723         2.2915       0.467566         5.4448         2.1627
     888.49200         8.6572       158.3683        52.8017         1.8932       0.475577         5.2214         2.1526
     888.64440         8.6151       160.3849        56.4180         1.7384       0.485120         5.1526         2.1309
     888.79680         8.5985       163.2695        55.7394         1.6976       0.492044         5.4650         2.1156
     888.94920         8.4599       164.0535        53.7876         1.6992       0.502288         5.7074         2.1112
     889.10160         8.3581       164.5442        55.5091         1.5546       0.476368         5.5545         2.0936
     889.25400         8.4339       164.9814        59.4839         1.3680       0.473497         5.2737         2.0657
     889.40640         8.4418       164.9814        60.5938         1.2560       0.417466         5.1384         2.0588
     889.55880         8.3362       165.5249        60.6483         1.3294       0.425863         5.1540         2.0759
     889.71120         8.2837       165.5249        64.5184         1.7128       0.472185         5.1741         2.0997
     889.86360         8.4179       166.2171        69.2136         1.9249       0.485614         5.2231         2.1235
     890.01600         8.3954       166.2171        69.2136         2.0585       0.469091         5.5073         2.1477
     890.16840         8.2348       167.0951        68.9665         1.9580       0.471025         5.8219         2.1543
     890.32080         8.1795       168.0331        68.4345         1.6091       0.481273         5.7466         2.1246
     890.47320         8.2093       168.8129        63.8189         1.5234       0.464824         5.4797         2.0865
     890.62560         8.2433       169.0497        62.0221         1.4234       0.472815         5.4070         2.0716
     890.77800         8.2856       168.7593        66.3361         1.4628       0.497636         5.4720         2.0832
     890.93040         8.2272       168.4308        70.4575         1.5732       0.459527         5.5330         2.1057
     891.08280         8.1969       168.4025        69.3015         1.7506       0.458042         5.6678         2.1295
     891.23520         8.2466       168.1591        68.7738         1.8391       0.443037         5.9933         2.1597
     891.38760         8.3350       167.4804        72.0427         1.8885       0.451623         6.1900         2.1690
     891.54000         8.3552       166.3530        73.7868         1.8426       0.475695         5.8429         2.1341
     891.69240         8.3666       164.5375        74.2030         1.7314       0.471904         5.2409         2.0934
     891.84480         8.3827       162.3382        80.9967         1.7300       0.470923         4.8651         2.0790
     891.99720         8.4107       160.6364        76.5911         1.7106       0.441347         4.7902         2.0896
     892.14960         8.4378       159.6062        74.3025         1.7029       0.457170         4.9019         2.1064
     892.30200         8.4551       157.9329        79.7139         1.6818       0.454596         4.9933         2.1103
     892.45440         8.6400       157.1548        86.5243         1.6554       0.434759         5.2489         2.1203
     892.60680         8.9023       156.5394        87.9567         1.6476       0.453861         5.3339         2.1268
     892.75920         9.1671       156.2275        88.7484         1.6524       0.440912         5.3577         2.1210
     892.91160         9.1847       156.3552        90.4824         1.5974       0.428654         5.3594         2.1098
     893.06400         8.7044       157.0227        86.9013         1.5626       0.434951         5.3237         2.0998
     893.21640         8.7837       158.1324        81.0710         1.5646       0.444329         5.2358         2.0827
     893.36880         8.6998       159.0001        76.0449         1.6189       0.455111         5.1773         2.0601
     893.52120         8.4507       167.5070        70.9476         1.7422       0.470025         5.2269         2.0524
     893.67360         8.3987       167.3413        67.1571         1.8015       0.494863         5.2959         2.0604
     893.82600         8.3202       167.1665        65.8754         1.8879       0.483471         5.3747         2.0707
     893.97840         8.3200       167.1326        65.2597         1.8965       0.525688         5.5355         2.0680
     894.13080         8.3239       167.1384        62.7550         1.7757       0.516767         5.6114         2.0440
     894.28320         8.3630       167.0316        61.5362         1.6951       0.453007         5.4641         2.0256
     894.43560         8.4002       167.1216        61.3988         1.5748       0.468964         5.3400         2.0423
     894.58800         8.4118       167.9960        61.1959         1.4923       0.487763         5.5885         2.0902
     894.74040         8.3892       168.1233        65.2314         1.4554       0.494163         6.0220         2.1230
     894.89280         8.4427       167.9890        67.8548         1.4107       0.537235         6.0640         2.0912
     895.04520         8.4768       167.8640        74.9858         1.3851       0.547517         5.7361         2.0301
     895.19760         8.6234       167.8176        77.9355         1.2728       0.554106         5.5097         2.0020
     895.35000         8.6992       167.8019        91.2578         1.2406       0.486120         5.4822         1.9989
     895.50240         8.7290       168.0617       103.1104         1.3485       0.485039         5.3792         1.9968
     895.65480         8.6413       168.6519       109.5439         1.4386       0.515539         4.9680         2.0053
