~Version Information Block
VERS .                  2.0:  CWLS LOG ASCII STANDARD - VERSION 2.0
WRAP .                   NO:  One line per depth step
~Well Information Block
#MNEM.UNIT        Data Type   Information
#---------- ----------------  -----------
STRT .M           375.05640:  START DEPTH
STOP .M          1661.16000:  STOP DEPTH
STEP .M             0.15240:  STEP
NULL .              -999.25:  NULL VALUE
COMP .                     :  COMPANY
WELL .                 KJ-06:  WELL
FLD  .                     :  FIELD
LOC  .                     :  LOCATION
CTRY .                     :  COUNTRY
STAT .                     :  STATE
CNTY .                     :  COUNTY
SRVC .                     :  SERVICE COMPANY
DATE .                     :  DATE
API  .                     :  API NUMBER
UWI  .                     :  UNIQUE WELL ID
~Curve Information Block
#MNEM.UNIT         API CODE   Curve Description
#---------- ----------------  -----------------
DEPTH.M      00 000 000 000:  Depth
CALI .IN     00 000 000 000:  Caliper
DTC  .US/F   00 000 000 000:  MonoDeltaT
GR   .GAPI   00 000 000 000:  Gamma API
LLD  .OHMM   00 000 000 000:  LLD
NPHI .V/V    00 000 000 000:  Neutron Porosity
PE   .       00 000 000 000:  Pe
RHOB .G/C3   00 000 000 000:  Density
~Parameter Information Block
#MNEM.UNIT            Value   Description
#---------- ----------------  -----------
PROJECT.             KARJISAN:  
SET  .               SPLICE:  
~Other Information Block
# 
~A       DEPTH           CALI            DTC             GR            LLD           NPHI             PE           RHOB 
# ...
     712.01280         8.3353       169.9604        83.5634         2.5901       0.442524         4.9820         2.0444
     712.16520         8.3036       170.3833        82.6891         2.5511       0.450434         4.8619         2.0257
     712.31760         8.1549       170.1736        84.2961         2.3845       0.449882         4.8036         2.0238
     712.47000         8.2162       169.6943        86.5285         2.1440       0.435949         4.7884         2.0290
     712.62240         8.2593       169.2463        88.7609         2.0605       0.471115         4.8517         2.0343
     712.77480         8.2596       168.8327        90.9221         2.0276       0.439392         4.9808         2.0366
     712.92720         8.1078       168.6175        90.9431         1.9874       0.449533         5.0427         2.0320
     713.07960         8.0538       169.1589        86.6751         1.9900       0.463356         4.9636         2.0297
     713.23200         8.0624       170.6403        87.3034         1.9914       0.488094         4.8538         2.0332
     713.38440         8.0536       171.6717        89.1588         2.0228       0.478035         4.7862         2.0451
     713.53680         8.0604       170.6189        88.5641         2.0679       0.471887         4.7130         2.0592
     713.68920         8.0746       169.7512        88.0267         2.1687       0.500183         4.6320         2.0601
     713.84160         8.1174       169.5943        87.6620         2.1970       0.474011         4.5476         2.0622
     713.99400         8.0560       169.6808        89.5358         2.2214       0.452056         4.5039         2.0766
     714.14640         8.2771       169.3889        87.5517         2.2049       0.438885         4.5181         2.0826
     714.29880         8.3865       168.8579        83.8940         2.1517       0.436164         4.5118         2.0752
     714.45120         8.3934       168.5659        83.5924         2.1322       0.427367         4.5301         2.0777
     714.60360         8.5896       168.7344        80.6647         2.1745       0.426448         4.6233         2.0874
     714.75600         8.6033       169.0167        76.2543         2.3115       0.442951         4.6839         2.0853
     714.90840         8.5182       169.0693        77.0878         2.3482       0.439378         4.7266         2.0773
     715.06080         8.5452       168.9800        79.6972         2.4107       0.450801         4.7930         2.0702
     715.21320         8.4515       169.1261        79.4082         2.4585       0.504757         4.8885         2.0625
     715.36560         8.4468       169.2523        76.9245         2.3381       0.442738         5.0935         2.0543
     715.51800         8.3862       169.2523        78.7632         2.3046       0.423684         5.2468         2.0510
     715.67040         8.3411       169.3307        83.0019         2.4344       0.432670         5.2125         2.0547
     715.82280         8.4049       169.3755        82.5579         2.5791       0.413995         5.1838         2.0688
     715.97520         8.3906       169.5785        80.6061         2.5332       0.428888         5.2495         2.0943
     716.12760         8.2612       169.5811        77.9004         2.4177       0.420348         5.2963         2.1093
     716.28000         8.1617       169.2747        77.8459         2.2411       0.448047         5.2072         2.0977
     716.43240         8.1808       169.0257        81.0207         2.1164       0.474958         4.9794         2.0762
     716.58480         8.1861       169.1532        83.6343         2.1265       0.440730         4.7174         2.0607
     716.73720         8.1416       168.6939        87.0479         2.1656       0.446458         4.5141         2.0515
     716.88960         8.0504       167.4085        89.0834         2.1869       0.474027         4.4042         2.0497
     717.04200         7.9904       166.1194        90.1180         2.2205       0.487232         4.3499         2.0564
     717.19440         7.9850       165.6792        91.2363         2.2111       0.476541         4.3431         2.0644
     717.34680         7.9926       167.6890        89.7368         2.1968       0.462447         4.4198         2.0659
     717.49920         8.0510       169.2117        86.2940         2.2046       0.440356         4.5570         2.0574
     717.65160         8.1899       170.0189        82.6793         2.1640       0.417305         4.6736         2.0419
     717.80400         8.1940       170.3416        80.1202         2.1086       0.417132         4.7326         2.0295
     717.95640         8.2028       170.3448        82.3275         2.0865       0.450672         4.7547         2.0323
     718.10880         8.1815       170.3884        83.9401         2.1047       0.447718         4.7494         2.0491
     718.26120         8.0803       170.0284        83.1861         2.1043       0.475458         4.7092         2.0570
     718.41360         8.0413       169.5167        83.1652         2.0344       0.451828         4.6117         2.0582
     718.56600         7.9548       169.3480        88.1871         1.9807       0.439875         4.4870         2.0701
     718.71840         7.9441       169.2343        87.7096         1.9316       0.460164         4.4410         2.0753
     718.87080         7.9937       168.9664        83.0102         1.9574       0.437793         4.5008         2.0668
     719.02320         8.1122       168.6786        84.7024         2.0473       0.421740         4.5864         2.0602
     719.17560         8.1769       168.6158        88.1494         2.0702       0.429767         4.6098         2.0597
     719.32800         8.2217       168.7007        88.9871         2.0719       0.467717         4.5848         2.0612
     719.48040         8.3955       168.8394        86.2772         2.0455       0.452120         4.6302         2.0609
     719.63280         8.5014       169.0464        84.7568         1.9711       0.471899         4.6840         2.0621
     719.78520         8.5032       169.3206        85.0081         1.9672       0.458962         4.6754         2.0637
     719.93760         8.5016       169.5210        85.1715         1.9750       0.485277         4.7002         2.0647
     720.09000         8.5121       169.5181        86.2169         1.9358       0.469068         4.7156         2.0701
     720.24240         8.4633       169.6203        88.3856         1.9908       0.439760         4.7650         2.0809
     720.39480         8.6050       169.6319        90.3835         2.0006       0.475405         4.8322         2.0864
     720.54720         8.7441       169.4732        89.1195         2.0302       0.473497         4.9639         2.0914
     720.69960         8.9350       169.2783        84.1780         2.0526       0.438197         5.0403         2.1020
     720.85200         9.1060       169.1135        78.5001         2.1304       0.437854         4.9261         2.0948
     721.00440         9.3820       168.8416        75.3379         2.1927       0.412536         4.8657         2.0655
     721.15680         9.3200       167.7431        68.4169         2.4824       0.363904         5.1786         2.0309
     721.30920         9.2916       156.3707        61.2222         3.0773       0.341937         5.3991         2.0190
     721.46160         9.1552       151.3731        59.8785         3.8326       0.333017         5.2500         2.0582
     721.61400         9.1101       147.2828        60.9924         4.5921       0.318612         5.1448         2.1091
     721.76640         9.0074       138.0731        84.3777         5.3119       0.330412         5.1557         2.1272
     721.91880         9.0528       138.3545        82.8829         5.7123       0.326145         5.1658         2.1346
     722.07120         9.0967       139.8938        84.6395         5.8735       0.332967         5.1636         2.1547
