~Version Information Block
VERS .                  2.0:  CWLS LOG ASCII STANDARD - VERSION 2.0
WRAP .                   NO:  One line per depth step
~Well Information Block
#MNEM.UNIT        Data Type   Information
#---------- ----------------  -----------
STRT .M           416.81400:  START DEPTH
STOP .M          1602.18120:  STOP DEPTH
STEP .M             0.15240:  STEP
NULL .              -999.25:  NULL VALUE
COMP .                     :  COMPANY
WELL .                 KJ-04:  WELL
FLD  .                     :  FIELD
LOC  .                     :  LOCATION
CTRY .                     :  COUNTRY
STAT .                     :  STATE
CNTY .                     :  COUNTY
SRVC .                     :  SERVICE COMPANY
DATE .                     :  DATE
API  .                     :  API NUMBER
UWI  .                     :  UNIQUE WELL ID
~Curve Information Block
#MNEM.UNIT         API CODE   Curve Description
#---------- ----------------  -----------------
DEPTH.M                    :  DEPTH (BOREHOLE)
DTC  .US/F                 :  Delta-T (also called Slowness or Interval Transit Time)
GR   .GAPI                 :  GR_1 Edited
NPHI .V/V                  :  NPHI_1 Edited
PEFZ .B/E                  :  PEFZ_1 Edited
RHOZ .G/C3                 :  Standard Resolution Formation Density (RHOZ_1 Edited)
RLA1 .OHMM                 :  Apparent Resistivity from Computed Focusing Mode 1
RLA2 .OHMM                 :  Apparent Resistivity from Computed Focusing Mode 2
RLA3 .OHMM                 :  Apparent Resistivity from Computed Focusing Mode 3
RLA4 .OHMM                 :  Apparent Resistivity from Computed Focusing Mode 4
RLA5 .OHMM                 :  RLA5_1 Edited (RLA5_2 Edited)
~Parameter Information Block
#MNEM.UNIT            Value   Description
#---------- ----------------  -----------
PROJECT.             KARJISAN:  
SET  .               SPLICE:  
~Other Information Block
# 
~A       DEPTH            DTC             GR           NPHI           PEFZ           RHOZ           RLA1           RLA2           RLA3           RLA4           RLA5 
# ...
    1439.87520       148.8790        30.4112       0.681600         0.5820         1.2062        41.3374        68.3049        73.8680        75.4102        73.5903
    1440.02760       147.8295        42.5176       0.607600         0.8579         1.4150        24.6352        36.6603        39.9205        41.3320        40.3133
    1440.18000       140.4840        63.0473       0.571400         1.5657         1.7886         5.5510         5.8055         6.0526         6.1565         5.9672
    1440.33240       127.8385        85.6284       0.505300         2.6075         2.1589         3.1840         3.0932         3.1245         3.1105         2.9893
    1440.48480       119.9922       111.9412       0.536900         3.6872         2.3662         3.2026         3.1882         3.2447         3.1857         3.0641
    1440.63720       123.9465       121.4412       0.532300         4.6492         2.5132         3.0047         3.0380         3.0841         3.0077         2.8776
    1440.78960       102.9786       118.3858       0.505300         5.3141         2.6990         3.5138         3.7821         3.7312         3.6364         3.4760
    1440.94200       102.1726       110.7694       0.477500         5.6351         2.8893         3.6889         4.1794         4.1789         4.0801         3.9101
    1441.09440       100.7831       109.9815       0.473300         5.4751         2.9016         3.4017         3.8831         3.9600         3.8686         3.7016
    1441.24680        98.5424       120.8247       0.483500         5.1592         2.7970         3.3412         3.6086         3.9414         3.8842         3.7294
    1441.39920       108.9753       119.8049       0.479200         5.0849         2.7310         3.0719         3.2760         3.7073         3.7788         3.6433
    1441.55160       104.9778       113.1960       0.473400         5.1964         2.7420         2.5800         2.6963         3.0241         3.1294         3.0192
    1441.70400       104.7447       107.6501       0.423200         5.3088         2.7520         2.4732         2.5600         2.8080         2.9692         2.8684
    1441.85640       100.8094       107.9775       0.381300         5.2357         2.6458         4.3069         5.1506         5.7712         6.2101         6.1042
    1442.00880        95.6049       109.2980       0.394500         5.1805         2.5478         3.9758         4.7791         5.3613         5.7559         5.9000
    1442.16120       105.3502        99.0250       0.479100         5.1727         2.4988         3.5432         4.1581         4.6034         4.9119         5.0914
    1442.31360       102.6496        94.0358       0.490900         5.1428         2.4979         3.3661         4.1437         4.6165         4.9422         5.1768
    1442.46600       101.9404        93.4584       0.503200         4.9292         2.4752         3.7424         4.6794         5.3378         5.7598         6.2808
    1442.61840       103.0326       106.3058       0.453800         4.5232         2.4281         3.6289         4.5570         5.1779         5.6140         6.2238
    1442.77080       104.9538       114.7178       0.407900         3.9528         2.3410         2.9270         3.4885         3.8546         4.2020         4.7157
    1442.92320       106.8304       123.6604       0.365100         3.3557         2.2574         3.2746         3.8645         4.2957         4.7249         5.3921
    1443.07560       108.8624       117.5551       0.339000         2.9640         2.1981         3.8814         4.7153         5.3642         5.8586         6.8272
    1443.22800       109.6829       115.3828       0.343800         2.8378         2.1887         4.1565         5.2194         5.9992         6.5159         7.6038
    1443.38040       109.6838       114.3331       0.317600         2.9043         2.1900         4.4394         5.7412         6.6973         7.2282         8.5310
    1443.53280       110.4436       114.0682       0.318300         3.0741         2.1982         4.2903         5.7272         6.7544         7.3182         8.6972
    1443.68520       109.1468       114.5056       0.332300         3.2988         2.2089         3.2107         4.4165         5.3397         5.8507         6.9346
    1443.83760       108.0574       110.3592       0.344300         3.6216         2.2444         2.1908         2.9800         3.5777         3.9112         4.5927
    1443.99000       106.8197       100.6566       0.335900         3.9914         2.2961         2.0509         2.7991         3.3684         3.6836         4.2806
    1444.14240       104.4811        91.2437       0.341600         4.2659         2.3210         1.9769         2.7855         3.3614         3.7000         4.2788
    1444.29480       103.5900        87.5991       0.356400         4.3812         2.3142         1.6875         2.5245         3.0197         3.2984         3.7915
    1444.44720        99.5590        91.4829       0.370700         4.3768         2.3111         1.6447         2.6020         3.1236         3.4100         3.9047
    1444.59960        97.6912        90.4938       0.385800         4.4633         2.3490         1.6715         2.7626         3.5279         3.9016         4.4240
    1444.75200        95.4764        83.2778       0.383900         4.6240         2.3927         1.5169         2.4047         3.1383         3.4857         3.9066
    1444.90440        94.4066        83.3626       0.393800         4.7647         2.4134         1.4606         2.3035         3.0510         3.4027         3.8003
    1445.05680        94.9025        89.4619       0.391700         4.8898         2.4342         1.4613         2.2933         3.0853         3.4830         3.8654
    1445.20920        94.3958        96.0364       0.403600         5.0334         2.4611         1.4977         2.3151         3.1787         3.6728         4.0319
    1445.36160        92.9901        97.0490       0.400000         5.1464         2.4772         1.4744         2.3461         3.2515         3.8158         4.2235
    1445.51400        92.0555        91.7429       0.365600         5.0991         2.4644         1.4554         2.3495         3.2480         3.8250         4.2458
    1445.66640        92.7860        88.0412       0.352000         4.8881         2.4313         1.4084         2.2973         3.1934         3.7741         4.2220
    1445.81880        94.4189        80.7796       0.332100         4.5981         2.3856         1.3556         2.1924         3.0611         3.6004         4.0770
    1445.97120        97.4040        85.0712       0.334500         4.3668         2.3434         1.2710         2.0512         2.8338         3.3337         3.7943
    1446.12360        98.5567        91.0547       0.318300         4.1645         2.3074         1.1732         1.8790         2.5515         2.9983         3.4435
    1446.27600        99.1280        97.2220       0.326600         4.0418         2.2944         1.1522         1.8422         2.4987         2.9367         3.3884
    1446.42840        99.3248        92.0300       0.322400         4.0071         2.3005         1.1584         1.8575         2.5367         2.9775         3.4720
    1446.58080        99.5423        85.9958       0.345400         4.0856         2.3138         1.1708         1.9245         2.6410         3.0838         3.6189
    1446.73320        99.5406        80.2524       0.341100         4.2196         2.3253         1.1472         1.9047         2.6132         3.0484         3.5846
    1446.88560        98.1650        71.6486       0.344000         4.3304         2.3287         1.1122         1.8545         2.5463         2.9565         3.4812
    1447.03800        96.2860        68.5535       0.331800         4.4841         2.3481         1.1851         1.9221         2.6857         3.1012         3.6143
    1447.19040        95.8758        77.8638       0.337200         4.7436         2.3909         1.1255         1.7893         2.4713         2.8639         3.3390
