~Version Information Block
VERS .                  2.0:  CWLS LOG ASCII STANDARD - VERSION 2.0
WRAP .                   NO:  One line per depth step
~Well Information Block
#MNEM.UNIT        Data Type   Information
#---------- ----------------  -----------
STRT .M           416.81400:  START DEPTH
STOP .M          1602.18120:  STOP DEPTH
STEP .M             0.15240:  STEP
NULL .              -999.25:  NULL VALUE
COMP .                     :  COMPANY
WELL .                 KJ-04:  WELL
FLD  .                     :  FIELD
LOC  .                     :  LOCATION
CTRY .                     :  COUNTRY
STAT .                     :  STATE
CNTY .                     :  COUNTY
SRVC .                     :  SERVICE COMPANY
DATE .                     :  DATE
API  .                     :  API NUMBER
UWI  .                     :  UNIQUE WELL ID
~Curve Information Block
#MNEM.UNIT         API CODE   Curve Description
#---------- ----------------  -----------------
DEPTH.M                    :  DEPTH (BOREHOLE)
DTC  .US/F                 :  Delta-T (also called Slowness or Interval Transit Time)
GR   .GAPI                 :  GR_1 Edited
NPHI .V/V                  :  NPHI_1 Edited
PEFZ .B/E                  :  PEFZ_1 Edited
RHOZ .G/C3                 :  Standard Resolution Formation Density (RHOZ_1 Edited)
RLA1 .OHMM                 :  Apparent Resistivity from Computed Focusing Mode 1
RLA2 .OHMM                 :  Apparent Resistivity from Computed Focusing Mode 2
RLA3 .OHMM                 :  Apparent Resistivity from Computed Focusing Mode 3
RLA4 .OHMM                 :  Apparent Resistivity from Computed Focusing Mode 4
RLA5 .OHMM                 :  RLA5_1 Edited (RLA5_2 Edited)
~Parameter Information Block
#MNEM.UNIT            Value   Description
#---------- ----------------  -----------
PROJECT.             KARJISAN:  
SET  .               SPLICE:  
~Other Information Block
# 
~A       DEPTH            DTC             GR           NPHI           PEFZ           RHOZ           RLA1           RLA2           RLA3           RLA4           RLA5 
# ...
    1357.73160       118.3989       111.6595       0.408300         4.4852         2.4964         3.4127         4.0348         4.2906         4.4203         4.5218
    1357.88400       109.5663       102.2729       0.329300         5.2162         2.6996         4.4422         5.9143         6.5307         6.7268         6.9327
    1358.03640        87.2308        91.3938       0.290700         5.6602         2.8140         6.6098        11.7088        14.2080        14.7898        15.4223
    1358.18880        78.6317        86.9225       0.284500         5.4456         2.7068         5.1348         7.6240         8.6254         8.7330         8.6990
    1358.34120        83.1318        93.1385       0.340800         4.7568         2.5227         2.8253         3.3133         3.4151         3.3713         3.3193
    1358.49360        90.6560       110.2131       0.379300         4.0779         2.3761         2.5446         2.9176         2.9602         2.9149         2.8661
    1358.64600       104.0718       121.5411       0.434600         3.7603         2.3568         2.9544         3.0146         2.9762         2.9010         2.8267
    1358.79840       114.6437       128.2848       0.443300         3.7556         2.3667         3.2974         3.3644         3.3053         3.1994         3.1016
    1358.95080       112.1178       129.0009       0.441100         3.9807         2.3912         3.1709         3.4003         3.3271         3.2066         3.1017
    1359.10320       111.4396       130.4074       0.381000         4.2479         2.4824         2.5806         3.0260         2.9511         2.8104         2.7001
    1359.25560       105.6372       121.2436       0.378300         4.3466         2.5191         3.7805         4.7299         5.0368         4.8005         4.5930
    1359.40800       105.3552       107.3340       0.380900         4.1574         2.5054         3.3304         3.9162         4.0284         3.8842         3.6489
    1359.56040       106.4245       107.6658       0.405900         3.8012         2.4280         3.3182         3.8281         3.9029         3.7701         3.5583
    1359.71280       107.8535       122.5390       0.422100         3.5699         2.4133         3.1987         3.3230         3.3356         3.2499         3.0542
    1359.86520       115.5984       135.6947       0.416000         3.5422         2.4213         3.2959         3.3515         3.3733         3.3135         3.0990
    1360.01760       116.5326       131.3350       0.404300         3.7381         2.4331         3.9573         4.2298         4.2628         4.2050         3.9274
    1360.17000       110.2957       115.1299       0.377400         4.2954         2.5824         3.6324         3.9846         3.9709         3.9118         3.6442
    1360.32240        97.8397       101.4653       0.334900         4.9049         2.7981         4.9938         5.8902         6.0421         5.9895         5.5855
    1360.47480        82.1704        91.6575       0.346400         5.2014         2.9490         8.7836        10.4074        11.2511        11.3489        10.7844
    1360.62720        84.6299        96.7502       0.363600         4.8812         2.8146         3.8815         3.7984         3.9879         3.9454         3.7497
    1360.77960        91.9100       108.5686       0.431900         4.3190         2.5929         2.9950         2.8852         3.0180         2.9611         2.8166
    1360.93200       107.6804       118.5085       0.466300         3.9095         2.4335         2.7017         2.5943         2.6588         2.6067         2.4765
    1361.08440       117.3678       121.4888       0.460400         3.7950         2.4278         3.2310         3.3354         3.2972         3.2396         3.0945
    1361.23680       106.2991       116.6547       0.420100         3.8913         2.4807         3.8859         4.5348         4.4610         4.3729         4.1908
    1361.38920       100.6065       117.2793       0.381600         3.9990         2.5208         3.5818         4.2023         4.1580         4.0540         3.9069
    1361.54160        95.5387       117.9095       0.388500         3.9576         2.5089         3.6065         4.0970         4.1174         3.9952         3.8658
    1361.69400       106.7487       113.6307       0.399100         3.9589         2.4999         3.8207         4.3029         4.6355         4.4826         4.3797
    1361.84640       104.1050       111.5172       0.380800         4.2568         2.5380         3.5408         3.8425         4.3151         4.2527         4.1686
    1361.99880        92.9083       106.7050       0.331500         4.7717         2.6255         4.2407         4.7739         5.4152         5.4603         5.3561
    1362.15120        91.7334       112.3229       0.316300         5.0614         2.6696         5.7060         7.0968         7.8163         8.0057         8.0012
    1362.30360        92.4584       116.0234       0.351800         4.8779         2.6069         3.9966         4.3004         4.4220         4.4561         4.4824
    1362.45600        95.6439       118.2628       0.421100         4.4690         2.5237         3.6432         3.7601         3.8217         3.8346         3.8553
    1362.60840       109.7677       116.4598       0.454800         4.2638         2.5026         4.1025         4.2224         4.2626         4.2663         4.2789
    1362.76080       104.7824       108.8955       0.407300         4.4277         2.5817         4.0093         4.2917         4.3099         4.3177         4.3121
    1362.91320        97.2788       104.1694       0.381100         4.6597         2.6360         4.8211         5.9022         5.9239         5.9874         5.9516
    1363.06560        99.0778       102.3548       0.353000         4.6009         2.5654         3.2936         3.8135         3.8547         3.9366         3.8842
    1363.21800        99.3332       116.9218       0.402800         4.2083         2.4704         2.8082         3.0308         3.0852         3.1589         3.0650
    1363.37040       106.0742       129.6366       0.456200         3.8329         2.3940         3.7757         4.0818         4.3193         4.3904         4.1508
    1363.52280       111.4229       132.7893       0.492700         3.8504         2.4586         3.5609         4.0650         4.3338         4.3672         4.0934
    1363.67520       102.7218       116.7331       0.465400         4.2558         2.6607         3.8907         4.7146         5.0246         5.0539         4.7235
    1363.82760        92.3040        95.6343       0.392800         4.6903         2.8648         6.7299         9.7629        10.9402        10.9550        10.2160
    1363.98000        90.9267        86.3346       0.348600         4.8700         2.9614         4.2346         5.0327         5.5596         5.4192         5.0654
    1364.13240        90.0099        85.9373       0.336000         4.7626         2.8385         4.1712         4.9034         5.4025         5.2570         4.9244
    1364.28480        89.7707        93.4480       0.348900         4.6346         2.6767         4.3938         5.0513         5.4258         5.3065         4.9982
    1364.43720       104.1980        96.7010       0.366000         4.4788         2.5059         3.3547         3.5042         3.5483         3.4910         3.3065
    1364.58960       107.8627       103.5422       0.416500         4.2784         2.4019         3.1539         3.1555         3.1477         3.1009         2.9428
    1364.74200       111.4302       111.2613       0.420000         4.0386         2.3455         3.2407         3.1591         3.1020         3.0590         2.9152
    1364.89440       118.8148       117.5200       0.413900         3.7361         2.2772         4.4592         4.4958         4.4395         4.3307         4.2273
    1365.04680       120.9062       111.8719       0.406500         3.2790         2.1754         5.9776         6.5461         6.5635         6.3820         6.2931
