~Version Information Block
VERS .                  2.0:  CWLS LOG ASCII STANDARD - VERSION 2.0
WRAP .                   NO:  One line per depth step
~Well Information Block
#MNEM.UNIT        Data Type   Information
#---------- ----------------  -----------
STRT .M           416.81400:  START DEPTH
STOP .M          1602.18120:  STOP DEPTH
STEP .M             0.15240:  STEP
NULL .              -999.25:  NULL VALUE
COMP .                     :  COMPANY
WELL .                 KJ-04:  WELL
FLD  .                     :  FIELD
LOC  .                     :  LOCATION
CTRY .                     :  COUNTRY
STAT .                     :  STATE
CNTY .                     :  COUNTY
SRVC .                     :  SERVICE COMPANY
DATE .                     :  DATE
API  .                     :  API NUMBER
UWI  .                     :  UNIQUE WELL ID
~Curve Information Block
#MNEM.UNIT         API CODE   Curve Description
#---------- ----------------  -----------------
DEPTH.M                    :  DEPTH (BOREHOLE)
DTC  .US/F                 :  Delta-T (also called Slowness or Interval Transit Time)
GR   .GAPI                 :  GR_1 Edited
NPHI .V/V                  :  NPHI_1 Edited
PEFZ .B/E                  :  PEFZ_1 Edited
RHOZ .G/C3                 :  Standard Resolution Formation Density (RHOZ_1 Edited)
RLA1 .OHMM                 :  Apparent Resistivity from Computed Focusing Mode 1
RLA2 .OHMM                 :  Apparent Resistivity from Computed Focusing Mode 2
RLA3 .OHMM                 :  Apparent Resistivity from Computed Focusing Mode 3
RLA4 .OHMM                 :  Apparent Resistivity from Computed Focusing Mode 4
RLA5 .OHMM                 :  RLA5_1 Edited (RLA5_2 Edited)
~Parameter Information Block
#MNEM.UNIT            Value   Description
#---------- ----------------  -----------
PROJECT.             KARJISAN:  
SET  .               SPLICE:  
~Other Information Block
# 
~A       DEPTH            DTC             GR           NPHI           PEFZ           RHOZ           RLA1           RLA2           RLA3           RLA4           RLA5 
# ...
     812.59680       177.1535        91.1528       0.466500         4.2199         2.1708         1.0034         1.0672         1.1191         1.1283         1.1201
     812.74920       176.1092        93.4686       0.448100         4.2322         2.1607         1.0008         1.0662         1.1306         1.1413         1.1337
     812.90160       175.3660        97.4972       0.472800         4.2888         2.1610         0.9561         1.0247         1.0988         1.1128         1.1057
     813.05400       175.3694       100.8403       0.474700         4.3180         2.1633         0.8946         0.9687         1.0415         1.0562         1.0492
     813.20640       175.6371       101.7483       0.481200         4.2975         2.1740         0.9669         1.0782         1.1661         1.1888         1.1819
     813.35880       174.9821       101.4789       0.435000         4.2410         2.1876         1.0329         1.1754         1.2750         1.3024         1.2941
     813.51120       174.8079       100.1165       0.418800         4.2081         2.1894         1.0656         1.2534         1.3725         1.4096         1.4024
     813.66360       174.7675        96.8643       0.407600         4.2014         2.1755         0.8209         0.9666         1.0657         1.0948         1.0894
     813.81600       174.9286        86.8949       0.419300         4.2236         2.1565         0.7974         0.9373         1.0377         1.0624         1.0502
     813.96840       175.1798        87.8936       0.463000         4.2278         2.1457         0.8474         1.0157         1.1361         1.1637         1.1499
     814.12080       176.8441        87.9239       0.468300         4.2169         2.1413         0.8334         1.0145         1.1196         1.1463         1.1397
     814.27320       179.2264        92.6423       0.468100         4.1913         2.1374         0.8906         1.1211         1.2346         1.2662         1.2611
     814.42560       180.3416        91.9425       0.418500         4.1985         2.1228         0.8576         1.0540         1.1527         1.1769         1.1669
     814.57800       180.9759        96.0776       0.432500         4.1646         2.1183         0.8888         1.0485         1.1568         1.1797         1.1708
     814.73040       181.1651        99.6276       0.463200         4.1092         2.1213         0.9028         1.0463         1.1523         1.1714         1.1557
     814.88280       182.1983       101.9655       0.486100         4.0291         2.1341         0.8296         0.9297         1.0080         1.0220         1.0053
     815.03520       183.8046       100.4676       0.472200         4.0093         2.1387         0.9325         1.0547         1.1396         1.1595         1.1478
     815.18760       186.3179       100.3255       0.478600         4.0456         2.1392         0.9360         1.0458         1.1215         1.1406         1.1271
     815.34000       188.1852        99.4371       0.462500         4.1077         2.1405         0.9252         1.0133         1.0812         1.0967         1.0815
     815.49240       189.3730       101.9125       0.483700         4.1821         2.1390         0.9078         0.9855         1.0469         1.0580         1.0404
     815.64480       189.0239       105.1948       0.488600         4.2312         2.1372         0.8920         0.9639         1.0216         1.0297         1.0116
     815.79720       188.3842       108.6562       0.520300         4.2486         2.1357         0.8906         0.9616         1.0185         1.0263         1.0091
     815.94960       187.7393       110.2598       0.500200         4.2106         2.1427         0.8950         0.9810         1.0347         1.0409         1.0256
     816.10200       187.0161       112.0220       0.461200         4.1995         2.1446         0.9014         0.9946         1.0460         1.0489         1.0326
     816.25440       186.7587       109.2646       0.434800         4.2006         2.1459         0.9236         1.0288         1.0891         1.0877         1.0722
     816.40680       185.6864       106.3147       0.439800         4.2460         2.1401         0.9102         1.0125         1.0720         1.0711         1.0614
     816.55920       184.8466       103.3706       0.437300         4.2670         2.1429         0.8840         0.9798         1.0345         1.0341         1.0227
     816.71160       183.8925       106.9081       0.439200         4.3289         2.1437         0.8874         0.9824         1.0367         1.0409         1.0341
     816.86400       182.0857       112.1995       0.463700         4.3660         2.1523         0.8854         0.9715         1.0239         1.0325         1.0290
     817.01640       182.7101       113.5540       0.459600         4.3806         2.1647         0.9063         0.9904         1.0496         1.0637         1.0622
     817.16880       180.2536       109.3809       0.477600         4.3550         2.1801         0.8843         0.9655         1.0303         1.0510         1.0532
     817.32120       179.4760       101.4162       0.478400         4.3181         2.1899         0.8408         0.9392         1.0144         1.0375         1.0425
     817.47360       179.1963        96.6401       0.499600         4.2166         2.1872         0.8826         1.0204         1.1219         1.1526         1.1610
     817.62600       183.0934        92.1503       0.472300         4.0286         2.1624         0.8707         1.0248         1.1317         1.1659         1.1703
     817.77840       184.5591        94.8042       0.453000         3.8076         2.1339         0.9637         1.1593         1.2879         1.3275         1.3255
     817.93080       187.6106        99.5758       0.424500         3.6433         2.1068         0.9481         1.1324         1.2564         1.2945         1.2878
     818.08320       190.9471       101.9774       0.442300         3.5460         2.0877         0.9571         1.1466         1.2747         1.3127         1.3023
     818.23560       197.0283        99.6681       0.441300         3.5343         2.0673         0.8977         1.0801         1.2109         1.2472         1.2439
     818.38800       219.2496        99.7542       0.473700         3.5972         2.0621         0.8571         1.0225         1.1523         1.1869         1.1874
     818.54040       221.2318       101.2574       0.466000         3.7130         2.0814         0.8653         1.0159         1.1457         1.1795         1.1819
     818.69280       222.9432       103.4660       0.464200         3.7534         2.1033         1.0015         1.1499         1.2827         1.3212         1.3252
     818.84520       223.5811       103.5843       0.415100         3.6320         2.1039         0.9793         1.1079         1.2249         1.2593         1.2653
     818.99760       224.6058       113.1902       0.419700         3.4054         2.0762         0.9236         1.0373         1.1346         1.1603         1.1663
     819.15000       226.9191       119.2466       0.464500         3.1794         2.0423         0.9334         1.0366         1.1261         1.1456         1.1548
     819.30240       227.3208       118.1380       0.480900         3.0262         2.0213         0.9289         1.0121         1.0924         1.1084         1.1175
     819.45480       228.1968       114.6840       0.496200         2.9379         2.0220         0.9391         1.0141         1.0889         1.1047         1.1131
     819.60720       226.0372       120.5698       0.473700         2.9113         2.0297         0.9722         1.0587         1.1296         1.1482         1.1564
     819.75960       225.1340       130.2733       0.498900         2.9361         2.0347         1.0030         1.0846         1.1540         1.1714         1.1788
     819.91200       223.9901       140.3133       0.482200         2.9998         2.0326         1.0144         1.0903         1.1696         1.1839         1.1874
