~Version Information Block
VERS .                  2.0:  CWLS LOG ASCII STANDARD - VERSION 2.0
WRAP .                   NO:  One line per depth step
~Well Information Block
#MNEM.UNIT        Data Type   Information
#---------- ----------------  -----------
STRT .M           416.81400:  START DEPTH
STOP .M          1602.18120:  STOP DEPTH
STEP .M             0.15240:  STEP
NULL .              -999.25:  NULL VALUE
COMP .                     :  COMPANY
WELL .                 KJ-04:  WELL
FLD  .                     :  FIELD
LOC  .                     :  LOCATION
CTRY .                     :  COUNTRY
STAT .                     :  STATE
CNTY .                     :  COUNTY
SRVC .                     :  SERVICE COMPANY
DATE .                     :  DATE
API  .                     :  API NUMBER
UWI  .                     :  UNIQUE WELL ID
~Curve Information Block
#MNEM.UNIT         API CODE   Curve Description
#---------- ----------------  -----------------
DEPTH.M                    :  DEPTH (BOREHOLE)
DTC  .US/F                 :  Delta-T (also called Slowness or Interval Transit Time)
GR   .GAPI                 :  GR_1 Edited
NPHI .V/V                  :  NPHI_1 Edited
PEFZ .B/E                  :  PEFZ_1 Edited
RHOZ .G/C3                 :  Standard Resolution Formation Density (RHOZ_1 Edited)
RLA1 .OHMM                 :  Apparent Resistivity from Computed Focusing Mode 1
RLA2 .OHMM                 :  Apparent Resistivity from Computed Focusing Mode 2
RLA3 .OHMM                 :  Apparent Resistivity from Computed Focusing Mode 3
RLA4 .OHMM                 :  Apparent Resistivity from Computed Focusing Mode 4
RLA5 .OHMM                 :  RLA5_1 Edited (RLA5_2 Edited)
~Parameter Information Block
#MNEM.UNIT            Value   Description
#---------- ----------------  -----------
PROJECT.             KARJISAN:  
SET  .               SPLICE:  
~Other Information Block
# 
~A       DEPTH            DTC             GR           NPHI           PEFZ           RHOZ           RLA1           RLA2           RLA3           RLA4           RLA5 
# ...
     498.95760       149.5894        95.8412       0.431700         3.6556         2.0669         1.2309         1.9998         2.6638         2.9211         3.1278
     499.11000       148.6314        94.7184       0.389500         3.6155         2.0635         1.1725         1.8643         2.4921         2.7462         2.9463
     499.26240       150.1762        93.6439       0.430300         3.6725         2.0528         1.2453         1.9376         2.5952         2.8742         3.0936
     499.41480       148.3814       100.0517       0.448800         3.7584         2.0509         1.2464         1.9851         2.6646         2.9676         3.1956
     499.56720       147.3701        99.0308       0.467300         3.7301         2.0650         1.2358         2.0973         2.8869         3.2644         3.5428
     499.71960       145.4329        98.4184       0.442400         3.5671         2.0784         1.2409         2.1590         3.0050         3.4098         3.7159
     499.87200       142.1564        98.7548       0.424100         3.3550         2.0852         1.2675         2.2609         3.1991         3.6383         3.9822
     500.02440       138.8465        94.6242       0.401700         3.2563         2.0802         1.2515         2.2789         3.2713         3.7251         4.0928
     500.17680       137.2067        91.2683       0.401600         3.2571         2.0793         1.2542         2.3903         3.4326         3.9123         4.3016
     500.32920       136.2313        87.8098       0.402600         3.2661         2.0861         1.2434         2.4573         3.5690         4.0940         4.5101
     500.48160       136.9014        90.0872       0.404200         3.2839         2.0901         1.2422         2.4197         3.5584         4.0643         4.4723
     500.63400       136.9035        86.2576       0.440700         3.3165         2.0875         1.2446         2.3507         3.4902         3.9745         4.3729
     500.78640       137.7241        84.5168       0.447500         3.3815         2.0802         1.2445         2.3352         3.5192         4.0167         4.4288
     500.93880       137.7722        81.0475       0.461400         3.4210         2.0824         1.2312         2.3146         3.4891         3.9907         4.4062
     501.09120       136.8128        89.2424       0.425200         3.3939         2.0995         1.2513         2.3836         3.5709         4.0893         4.5224
     501.24360       134.9094        92.1734       0.421000         3.3524         2.1169         1.3455         2.6283         3.9463         4.5453         5.0312
     501.39600       133.6716       100.4503       0.415800         3.3309         2.1221         1.3064         2.6176         3.9330         4.5327         5.0203
     501.54840       132.8778        97.0134       0.437900         3.3282         2.1115         1.2607         2.5299         3.7925         4.3576         4.8188
     501.70080       133.5646        93.1086       0.444800         3.3232         2.0982         1.2507         2.4617         3.6792         4.2081         4.6618
     501.85320       134.7060        92.5608       0.468900         3.3559         2.0865         1.3631         2.7037         4.1872         4.8115         5.3578
     502.00560       134.6058        92.8693       0.442700         3.3961         2.0902         1.3357         2.6730         4.2131         4.8932         5.4801
     502.15800       134.7176        92.6620       0.418800         3.4024         2.0962         1.3090         2.6023         3.9876         4.5790         5.1193
     502.31040       134.4630        84.6109       0.396600         3.3053         2.1043         1.3470         2.7630         4.3425         5.0572         5.6750
     502.46280       134.2663        84.5872       0.385500         3.2047         2.0974         1.2547         2.5771         3.9779         4.6558         5.2174
     502.61520       134.0691        85.9041       0.369000         3.1615         2.0918         1.2533         2.4535         3.5772         4.1184         4.5772
     502.76760       133.7495        87.5175       0.355300         3.1593         2.0964         1.2629         2.4996         3.6826         4.2316         4.6984
     502.92000       146.2901        87.3066       0.366700         3.1313         2.1111         1.3588         2.6833         4.0390         4.6493         5.1432
     503.07240       148.3253        86.2022       0.379900         3.0816         2.1156         1.3281         2.6501         3.9263         4.4839         4.9411
     503.22480       151.8862        82.3437       0.385300         3.0609         2.1071         1.3029         2.6682         4.0434         4.6440         5.1106
     503.37720       154.9576        77.4941       0.384700         3.0526         2.1044         1.3964         2.7402         4.1429         4.7288         5.1377
     503.52960       156.0558        75.0495       0.363500         2.9948         2.1167         1.4806         2.6812         3.8588         4.3236         4.6129
     503.68200       155.2077        75.0110       0.337400         2.8965         2.1308         1.3766         2.1917         2.9064         3.1690         3.3294
     503.83440       157.4621        74.3389       0.355600         2.9187         2.1256         1.1759         1.7095         2.1464         2.3101         2.4062
     503.98680       162.3606        78.7826       0.385300         3.1167         2.1190         1.3133         1.9694         2.4782         2.6698         2.7745
     504.13920       169.6821        87.2053       0.447600         3.4235         2.1165         1.3713         1.9609         2.3749         2.5124         2.5682
     504.29160       178.9617        97.7003       0.434000         3.6647         2.1212         1.3347         1.8583         2.2058         2.3176         2.3521
     504.44400       182.9352        96.8643       0.438500         3.7470         2.1249         1.3034         1.7632         2.0604         2.1505         2.1597
     504.59640       194.0270       102.2384       0.411100         3.7123         2.1417         1.2202         1.5746         1.8302         1.9028         1.8977
     504.74880       197.9692       100.0713       0.416100         3.6777         2.1546         1.2987         1.6623         1.9514         2.0327         2.0167
     504.90120       201.4348       103.5874       0.439400         3.7103         2.1403         1.4110         1.7646         2.0484         2.1215         2.0885
     505.05360       208.9635       106.0105       0.486900         3.7049         2.0973         1.4547         1.7974         2.0719         2.1466         2.1068
     505.20600       216.5939       110.5011       0.468700         3.6112         2.0615         1.5538         1.8992         2.1670         2.2409         2.2015
     505.35840       220.3114       109.7076       0.467200         3.5232         2.0441         1.5988         1.9384         2.1859         2.2405         2.2075
     505.51080       220.5380       105.4965       0.453800         3.4993         2.0496         1.7724         2.0299         2.2685         2.3099         2.2963
     505.66320       216.9180       101.5751       0.460500         3.5151         2.0521         1.9493         2.1205         2.3294         2.3635         2.3681
     505.81560       217.3041       100.7812       0.447400         3.5030         2.0516         1.7627         1.9761         2.1424         2.1827         2.2070
     505.96800       208.8392        95.3425       0.488900         3.5248         2.0446         1.7423         1.9428         2.0998         2.1459         2.1960
     506.12040       211.8906        95.6382       0.511900         3.6430         2.0369         1.7910         1.9155         2.0439         2.0953         2.1747
     506.27280       211.2597        96.6944       0.488800         3.8208         2.0376         1.9680         2.0245         2.1484         2.2041         2.3122
