~Version Information Block
VERS .                  2.0:  CWLS LOG ASCII STANDARD - VERSION 2.0
WRAP .                   NO:  One line per depth step
~Well Information Block
#MNEM.UNIT        Data Type   Information
#---------- ----------------  -----------
STRT .M           416.81400:  START DEPTH
STOP .M          1602.18120:  STOP DEPTH
STEP .M             0.15240:  STEP
NULL .              -999.25:  NULL VALUE
COMP .                     :  COMPANY
WELL .                 KJ-04:  WELL
FLD  .                     :  FIELD
LOC  .                     :  LOCATION
CTRY .                     :  COUNTRY
STAT .                     :  STATE
CNTY .                     :  COUNTY
SRVC .                     :  SERVICE COMPANY
DATE .                     :  DATE
API  .                     :  API NUMBER
UWI  .                     :  UNIQUE WELL ID
~Curve Information Block
#MNEM.UNIT         API CODE   Curve Description
#---------- ----------------  -----------------
DEPTH.M                    :  DEPTH (BOREHOLE)
DTC  .US/F                 :  Delta-T (also called Slowness or Interval Transit Time)
GR   .GAPI                 :  GR_1 Edited
NPHI .V/V                  :  NPHI_1 Edited
PEFZ .B/E                  :  PEFZ_1 Edited
RHOZ .G/C3                 :  Standard Resolution Formation Density (RHOZ_1 Edited)
RLA1 .OHMM                 :  Apparent Resistivity from Computed Focusing Mode 1
RLA2 .OHMM                 :  Apparent Resistivity from Computed Focusing Mode 2
RLA3 .OHMM                 :  Apparent Resistivity from Computed Focusing Mode 3
RLA4 .OHMM                 :  Apparent Resistivity from Computed Focusing Mode 4
RLA5 .OHMM                 :  RLA5_1 Edited (RLA5_2 Edited)
~Parameter Information Block
#MNEM.UNIT            Value   Description
#---------- ----------------  -----------
PROJECT.             KARJISAN:  
SET  .               SPLICE:  
~Other Information Block
# 
~A       DEPTH            DTC             GR           NPHI           PEFZ           RHOZ           RLA1           RLA2           RLA3           RLA4           RLA5 
# ...
     730.45320       168.1857       118.2617       0.488000         3.4619         2.0963         0.9043         1.0037         1.1015         1.1439         1.1658
     730.60560       166.5538       127.8090       0.460400         3.3946         2.1143         0.8841         0.9856         1.0745         1.1120         1.1339
     730.75800       163.8354       139.9124       0.484600         3.4499         2.1384         0.8535         0.9497         1.0257         1.0540         1.0754
     730.91040       159.9822       140.0091       0.493300         3.6241         2.1547         0.8509         0.9539         1.0238         1.0451         1.0678
     731.06280       157.7386       132.0419       0.467500         3.7964         2.1648         0.8903         1.0079         1.0811         1.0969         1.1194
     731.21520       155.8680       112.0498       0.440400         3.9796         2.1611         0.9178         1.0448         1.1264         1.1412         1.1684
     731.36760       155.3208        97.1473       0.427200         4.1606         2.1655         0.8063         0.8998         0.9639         0.9749         0.9911
     731.52000       156.0055        93.2548       0.481100         4.3997         2.1744         0.8053         0.8905         0.9530         0.9645         0.9791
     731.67240       156.4871        91.9994       0.501200         4.6035         2.1908         0.9012         0.9858         1.0519         1.0634         1.0755
     731.82480       157.6662        95.4976       0.529300         4.7356         2.1910         0.9122         0.9718         1.0310         1.0390         1.0452
     731.97720       160.1408        90.1428       0.504200         4.7237         2.1822         0.9224         0.9788         1.0358         1.0440         1.0492
     732.12960       161.9816        89.5879       0.504300         4.6164         2.1738         0.9185         0.9744         1.0231         1.0303         1.0299
     732.28200       163.2277        88.6482       0.510400         4.5039         2.1857         0.9377         0.9978         1.0477         1.0539         1.0501
     732.43440       163.1445        92.7378       0.514700         4.5105         2.2041         0.9828         1.0550         1.1076         1.1145         1.1042
     732.58680       162.3516        88.5003       0.487600         4.6230         2.2135         1.0558         1.1596         1.2225         1.2338         1.2156
     732.73920       160.5068        92.6850       0.450700         4.7114         2.2103         0.9570         1.0600         1.1236         1.1377         1.1183
     732.89160       158.2456        92.1208       0.444800         4.7203         2.1985         0.8523         0.9301         0.9830         0.9954         0.9759
     733.04400       155.5631        94.8671       0.462200         4.6551         2.1954         0.9772         1.0931         1.1642         1.1798         1.1512
     733.19640       153.2131        94.4024       0.509600         4.5753         2.2051         1.0427         1.1797         1.2595         1.2727         1.2368
     733.34880       152.9648        96.7472       0.494100         4.5191         2.2178         1.0005         1.1417         1.2199         1.2251         1.1863
     733.50120       154.0366        98.5873       0.477000         4.4606         2.2254         1.0195         1.1787         1.2664         1.2678         1.2285
     733.65360       156.0015        96.6669       0.412600         4.4708         2.2113         1.0197         1.1649         1.2645         1.2614         1.2263
     733.80600       156.7820        94.4243       0.399400         4.4765         2.1996         0.9839         1.1150         1.2138         1.2115         1.1801
     733.95840       156.7119        92.7324       0.411700         4.5126         2.1898         0.9891         1.1229         1.2087         1.2113         1.1854
     734.11080       155.6345        97.6310       0.438800         4.5163         2.1899         1.0095         1.1536         1.2291         1.2420         1.2200
     734.26320       154.3927       101.8586       0.464900         4.4824         2.1867         1.0088         1.1546         1.2247         1.2431         1.2253
     734.41560       154.0405       107.5467       0.456100         4.3819         2.1850         1.0495         1.2242         1.3197         1.3482         1.3428
     734.56800       166.1921        98.4371       0.423600         4.2482         2.1823         1.0754         1.2548         1.3827         1.4147         1.4211
     734.72040       162.0173        90.6351       0.386300         4.0725         2.1866         1.1218         1.3392         1.5087         1.5424         1.5603
     734.87280       156.9739        77.5410       0.367100         3.9117         2.1966         1.5067         1.9430         2.2784         2.3600         2.4285
     735.02520       152.1659        69.7799       0.373200         3.6870         2.1988         1.5361         2.0358         2.3650         2.4728         2.5604
     735.17760       152.0165        58.7044       0.361100         3.4945         2.1925         1.9549         2.8994         3.4820         3.7739         3.9705
     735.33000       153.1485        52.9985       0.340400         3.3523         2.1775         1.5617         2.1392         2.5454         2.8187         2.9975
     735.48240       156.2767        55.1146       0.319400         3.3102         2.1713         1.3177         1.7001         2.0309         2.2441         2.3656
     735.63480       156.0947        57.4541       0.333400         3.2811         2.1741         1.2967         1.6707         2.0446         2.2658         2.3847
     735.78720       154.3793        61.2089       0.356500         3.2429         2.1708         1.2644         1.6851         2.0684         2.2876         2.4070
     735.93960       152.7385        60.5325       0.351300         3.1930         2.1642         1.5060         2.2836         2.9038         3.2325         3.4152
     736.09200       153.4117        60.6482       0.357200         3.1480         2.1503         1.5308         2.4320         3.1895         3.5528         3.7774
     736.24440       157.1868        60.0085       0.361300         3.0801         2.1392         1.3588         2.0709         2.6635         2.9042         3.0663
     736.39680       160.4001        56.6024       0.371900         3.0188         2.1366         1.4417         2.1502         2.7300         2.9358         3.0815
     736.54920       162.4689        58.3128       0.349200         2.9890         2.1403         1.1442         1.5823         1.9462         2.0710         2.1610
     736.70160       176.4002        59.6091       0.324500         2.9787         2.1461         1.0822         1.4870         1.8185         1.9530         2.0389
     736.85400       175.3507        66.7142       0.309600         2.9826         2.1448         1.1595         1.5919         1.9075         2.0498         2.1404
     737.00640       177.0755        75.0598       0.371800         3.0666         2.1472         0.9471         1.2354         1.4344         1.5311         1.5906
     737.15880       181.9149        88.1204       0.418200         3.2787         2.1654         1.0471         1.3619         1.5990         1.6989         1.7668
     737.31120       185.9773        92.1110       0.444100         3.5075         2.1870         1.1090         1.4301         1.6625         1.7585         1.8262
     737.46360       188.6780        93.2220       0.420000         3.5704         2.1882         1.1274         1.4668         1.7582         1.8681         1.9526
     737.61600       185.9368        84.2801       0.400600         3.3840         2.1654         1.1752         1.5603         1.9239         2.0747         2.1875
     737.76840       185.1374        83.6538       0.385400         3.0932         2.1338         1.2068         1.6358         2.0200         2.2096         2.3390
