~Version Information Block
VERS .                  2.0:  CWLS LOG ASCII STANDARD - VERSION 2.0
WRAP .                   NO:  One line per depth step
~Well Information Block
#MNEM.UNIT        Data Type   Information
#---------- ----------------  -----------
STRT .M           416.81400:  START DEPTH
STOP .M          1602.18120:  STOP DEPTH
STEP .M             0.15240:  STEP
NULL .              -999.25:  NULL VALUE
COMP .                     :  COMPANY
WELL .                 KJ-04:  WELL
FLD  .                     :  FIELD
LOC  .                     :  LOCATION
CTRY .                     :  COUNTRY
STAT .                     :  STATE
CNTY .                     :  COUNTY
SRVC .                     :  SERVICE COMPANY
DATE .                     :  DATE
API  .                     :  API NUMBER
UWI  .                     :  UNIQUE WELL ID
~Curve Information Block
#MNEM.UNIT         API CODE   Curve Description
#---------- ----------------  -----------------
DEPTH.M                    :  DEPTH (BOREHOLE)
DTC  .US/F                 :  Delta-T (also called Slowness or Interval Transit Time)
GR   .GAPI                 :  GR_1 Edited
NPHI .V/V                  :  NPHI_1 Edited
PEFZ .B/E                  :  PEFZ_1 Edited
RHOZ .G/C3                 :  Standard Resolution Formation Density (RHOZ_1 Edited)
RLA1 .OHMM                 :  Apparent Resistivity from Computed Focusing Mode 1
RLA2 .OHMM                 :  Apparent Resistivity from Computed Focusing Mode 2
RLA3 .OHMM                 :  Apparent Resistivity from Computed Focusing Mode 3
RLA4 .OHMM                 :  Apparent Resistivity from Computed Focusing Mode 4
RLA5 .OHMM                 :  RLA5_1 Edited (RLA5_2 Edited)
~Parameter Information Block
#MNEM.UNIT            Value   Description
#---------- ----------------  -----------
PROJECT.             KARJISAN:  
SET  .               SPLICE:  
~Other Information Block
# 
~A       DEPTH            DTC             GR           NPHI           PEFZ           RHOZ           RLA1           RLA2           RLA3           RLA4           RLA5 
# ...
     887.27280       113.4351        57.5013       0.303800         3.7050         2.3009         0.8820         1.4249         1.9139         2.1547         2.4994
     887.42520       110.1815        53.3894       0.308100         3.8409         2.2889         0.8939         1.4780         1.9674         2.1714         2.5114
     887.57760       109.2125        50.5161       0.294400         3.8018         2.2611         0.8968         1.4577         1.9336         2.1228         2.4407
     887.73000       113.7759        51.3066       0.284500         3.6951         2.2477         0.8348         1.2897         1.6955         1.8673         2.1293
     887.88240       116.5480        59.9401       0.280500         3.6782         2.2757         0.7625         1.0485         1.3722         1.5485         1.7430
     888.03480       115.6465        70.0400       0.295000         3.9712         2.3227         0.8955         1.2331         1.6226         1.8736         2.1013
     888.18720       114.1392        82.9948       0.337200         4.4244         2.3781         1.0170         1.4550         1.9276         2.2635         2.5446
     888.33960       111.0539        97.8892       0.378300         4.8079         2.3992         1.1527         1.7659         2.3898         2.8344         3.2183
     888.49200       109.7727       104.0637       0.392100         4.7090         2.3880         1.3097         2.1063         2.9241         3.4450         3.9365
     888.64440       110.9393        97.3439       0.378800         4.1267         2.3410         1.5174         2.4989         3.5254         4.1068         4.6979
     888.79680       112.8017        77.2495       0.337200         3.3102         2.2711         1.5123         2.4591         3.3332         3.8001         4.2890
     888.94920       114.5863        64.8786       0.304000         2.5986         2.2103         1.4107         2.1702         2.7486         3.1007         3.4664
     889.10160       116.3442        61.5815       0.288600         2.2389         2.1699         1.2346         1.7858         2.1733         2.4274         2.7017
     889.25400       118.5292        61.5131       0.270200         2.2371         2.1723         0.9559         1.2538         1.4669         1.6169         1.7967
     889.40640       118.9769        66.5380       0.302200         2.6631         2.2253         0.8685         1.1060         1.2716         1.3863         1.5433
     889.55880       118.7368        70.1835       0.367200         3.6710         2.3154         1.0601         1.4188         1.6291         1.7520         1.9574
     889.71120       119.5324        77.8388       0.435000         4.9681         2.4368         1.2148         1.7837         2.1123         2.2595         2.5278
     889.86360       118.4927        79.5488       0.463000         5.9229         2.5216         1.2609         1.9036         2.2922         2.4510         2.7332
     890.01600       115.5833        90.0363       0.433600         6.1828         2.5482         1.4212         2.1056         2.6052         2.8015         3.1060
     890.16840       115.9064       101.5508       0.459200         5.9438         2.5092         1.3507         1.8682         2.3493         2.5388         2.7956
     890.32080       116.1831       111.4562       0.482400         5.5206         2.4715         1.3112         1.7374         2.2367         2.4363         2.6729
     890.47320       116.8452       107.2619       0.497800         5.0356         2.4509         1.3522         1.8015         2.3053         2.5561         2.7951
     890.62560       119.2629       100.9532       0.480300         4.4851         2.4285         1.4395         1.9462         2.4493         2.7413         2.9985
     890.77800       119.4891       100.3135       0.456600         4.0659         2.3909         1.4980         2.0662         2.5612         2.8618         3.1362
     890.93040       118.9109       105.9485       0.485100         3.8248         2.3599         1.6056         2.2550         2.7516         3.0440         3.3401
     891.08280       118.9528       109.1888       0.498400         3.7987         2.3495         1.5300         2.1062         2.5397         2.7763         3.0584
     891.23520       119.9005       107.8886       0.515800         3.9361         2.3529         1.3978         1.8688         2.2340         2.4134         2.6668
     891.38760       121.1486       113.5981       0.501300         4.1178         2.3541         1.3293         1.7464         2.0788         2.2381         2.4762
     891.54000       123.3058       117.8008       0.504400         4.1934         2.3534         1.3145         1.7190         2.0349         2.1926         2.4214
     891.69240       123.8720       115.4842       0.510700         4.2051         2.3535         1.3878         1.8673         2.2135         2.3936         2.6437
     891.84480       122.2648       113.5935       0.484300         4.1285         2.3554         1.4951         2.0913         2.4988         2.7132         2.9926
     891.99720       119.9048       108.4051       0.468400         4.1309         2.3590         1.5980         2.2680         2.7513         3.0017         3.3007
     892.14960       118.1568       114.2286       0.455900         4.1782         2.3599         1.6257         2.2947         2.8169         3.0843         3.3884
     892.30200       117.2032       113.7600       0.480200         4.2804         2.3696         1.5615         2.1648         2.6707         2.9348         3.2088
     892.45440       116.7135       119.2723       0.487700         4.3687         2.3780         1.4952         2.0352         2.5222         2.7886         3.0238
     892.60680       116.5457       114.9050       0.493600         4.3782         2.3868         1.4842         2.0251         2.5027         2.7846         2.9944
     892.75920       115.7276       115.6900       0.479700         4.3085         2.3757         1.4739         2.0342         2.4934         2.7785         2.9664
     892.91160       115.1368       117.4870       0.496300         4.2020         2.3849         1.4067         1.9739         2.4280         2.6888         2.8563
     893.06400       115.3692       122.6775       0.506300         4.0774         2.3769         1.3633         1.9294         2.3893         2.6110         2.7647
     893.21640       116.0394       124.7374       0.537600         3.9751         2.3690         1.3089         1.8496         2.3093         2.4688         2.6125
     893.36880       116.5988       122.8275       0.519800         3.9008         2.3478         1.2843         1.8127         2.2538         2.3901         2.5287
     893.52120       117.5449       119.2919       0.498600         3.8591         2.3430         1.2702         1.8023         2.2122         2.3311         2.4657
     893.67360       117.9331       115.7887       0.458800         3.8852         2.3520         1.3017         1.8356         2.2201         2.3440         2.4748
     893.82600       118.8412       116.9623       0.448200         4.0165         2.3691         1.3359         1.8647         2.2218         2.3662         2.4903
     893.97840       119.1992       121.0368       0.420200         4.1726         2.3861         1.3688         1.8876         2.2454         2.4117         2.5337
     894.13080       118.9903       121.0724       0.430900         4.2158         2.3998         1.4227         1.9128         2.2875         2.4731         2.5927
     894.28320       117.6572       123.3644       0.413400         3.9740         2.3895         1.5416         2.0580         2.5100         2.7229         2.8628
     894.43560       113.8795       131.6341       0.406400         3.6134         2.3734         1.8823         2.5673         3.2009         3.4864         3.6756
     894.58800       111.3538       132.5819       0.375000         3.2612         2.3534         2.2027         3.0602         3.8252         4.1706         4.4143
