~Version Information Block
VERS .                  2.0:  CWLS LOG ASCII STANDARD - VERSION 2.0
WRAP .                   NO:  One line per depth step
~Well Information Block
#MNEM.UNIT        Data Type   Information
#---------- ----------------  -----------
STRT .M           416.81400:  START DEPTH
STOP .M          1602.18120:  STOP DEPTH
STEP .M             0.15240:  STEP
NULL .              -999.25:  NULL VALUE
COMP .                     :  COMPANY
WELL .                 KJ-04:  WELL
FLD  .                     :  FIELD
LOC  .                     :  LOCATION
CTRY .                     :  COUNTRY
STAT .                     :  STATE
CNTY .                     :  COUNTY
SRVC .                     :  SERVICE COMPANY
DATE .                     :  DATE
API  .                     :  API NUMBER
UWI  .                     :  UNIQUE WELL ID
~Curve Information Block
#MNEM.UNIT         API CODE   Curve Description
#---------- ----------------  -----------------
DEPTH.M                    :  DEPTH (BOREHOLE)
DTC  .US/F                 :  Delta-T (also called Slowness or Interval Transit Time)
GR   .GAPI                 :  GR_1 Edited
NPHI .V/V                  :  NPHI_1 Edited
PEFZ .B/E                  :  PEFZ_1 Edited
RHOZ .G/C3                 :  Standard Resolution Formation Density (RHOZ_1 Edited)
RLA1 .OHMM                 :  Apparent Resistivity from Computed Focusing Mode 1
RLA2 .OHMM                 :  Apparent Resistivity from Computed Focusing Mode 2
RLA3 .OHMM                 :  Apparent Resistivity from Computed Focusing Mode 3
RLA4 .OHMM                 :  Apparent Resistivity from Computed Focusing Mode 4
RLA5 .OHMM                 :  RLA5_1 Edited (RLA5_2 Edited)
~Parameter Information Block
#MNEM.UNIT            Value   Description
#---------- ----------------  -----------
PROJECT.             KARJISAN:  
SET  .               SPLICE:  
~Other Information Block
# 
~A       DEPTH            DTC             GR           NPHI           PEFZ           RHOZ           RLA1           RLA2           RLA3           RLA4           RLA5 
# ...
    1126.23600       189.3411        97.9583       0.482100         5.1024         2.2062         1.3672         1.4702         1.5786         1.5895         1.5665
    1126.38840       185.8742        99.4064       0.488600         5.1986         2.2013         1.4969         1.5612         1.6527         1.6583         1.6327
    1126.54080       177.0356       101.9087       0.464800         5.3542         2.2262         1.4115         1.4922         1.5889         1.5944         1.5620
    1126.69320       176.0047       105.0613       0.435400         5.5333         2.2488         1.3926         1.4886         1.5923         1.6028         1.5735
    1126.84560       177.2166       106.0214       0.441500         5.5377         2.2744         1.3903         1.5019         1.6150         1.6282         1.5978
    1126.99800       156.6570       102.8255       0.460200         5.4691         2.2697         1.4820         1.5661         1.6832         1.6940         1.6684
    1127.15040       184.3440        97.9934       0.470400         5.2940         2.2492         1.4604         1.5664         1.6827         1.6924         1.6598
    1127.30280       182.6216        91.4838       0.483200         5.1108         2.2151         1.4011         1.5409         1.6643         1.6796         1.6540
    1127.45520       183.2014        90.6877       0.475900         4.9742         2.1913         1.3830         1.5309         1.6536         1.6684         1.6445
    1127.60760       175.1171        89.4606       0.489900         4.9577         2.1794         1.3780         1.5389         1.6695         1.6801         1.6511
    1127.76000       151.6975        93.6118       0.465100         5.0161         2.1839         1.3835         1.5340         1.6583         1.6642         1.6364
    1127.91240       154.5906        92.9388       0.478100         5.0562         2.1880         1.3732         1.5217         1.6415         1.6468         1.6151
    1128.06480       157.5658        96.8575       0.505900         5.0146         2.1947         1.3561         1.4992         1.6144         1.6194         1.5876
    1128.21720       157.1744        95.2031       0.520900         4.9449         2.1922         1.3598         1.5064         1.6277         1.6315         1.5972
    1128.36960       157.2974        92.2938       0.556200         4.8782         2.1939         1.3968         1.5278         1.6464         1.6470         1.6084
    1128.52200       158.1616        91.5998       0.525600         4.8612         2.1882         1.4058         1.5351         1.6560         1.6611         1.6249
    1128.67440       158.7768        92.7510       0.534900         4.8850         2.1853         1.4357         1.5456         1.6577         1.6617         1.6239
    1128.82680       158.5834        96.0638       0.518600         4.9037         2.1836         1.4783         1.5683         1.6684         1.6699         1.6295
    1128.97920       158.6002        96.7977       0.501300         4.8962         2.1878         1.4686         1.5885         1.7050         1.7090         1.6625
    1129.13160       157.9450        99.8993       0.502800         4.8725         2.1959         1.5211         1.6352         1.7498         1.7486         1.6973
    1129.28400       157.4732        98.3848       0.491700         4.8299         2.1940         1.5230         1.6411         1.7569         1.7537         1.6990
    1129.43640       157.4007        93.4116       0.485500         4.7850         2.1825         1.5280         1.6527         1.7687         1.7666         1.7119
    1129.58880       157.5050        89.5154       0.503500         4.7321         2.1656         1.5236         1.6284         1.7357         1.7304         1.6719
    1129.74120       158.1538        94.6030       0.535100         4.7099         2.1536         1.5362         1.6299         1.7331         1.7298         1.6819
    1129.89360       158.3925        94.5951       0.572400         4.7413         2.1538         1.4911         1.6135         1.7207         1.7131         1.6558
    1130.04600       158.7134        97.4856       0.569000         4.8106         2.1638         1.5103         1.6082         1.7070         1.6979         1.6424
    1130.19840       159.5471        93.8587       0.571200         4.8876         2.1770         1.5223         1.6232         1.7192         1.7121         1.6571
    1130.35080       159.2377        96.9562       0.554600         4.9683         2.1985         1.4974         1.6199         1.7182         1.7103         1.6542
    1130.50320       159.6077        95.3978       0.521000         5.0308         2.2111         1.5180         1.6283         1.7247         1.7168         1.6609
    1130.65560       159.3212        92.8271       0.516500         5.0540         2.2052         1.5920         1.6618         1.7496         1.7373         1.6783
    1130.80800       158.8595        92.3817       0.529000         4.9890         2.1875         1.5254         1.6359         1.7447         1.7361         1.6778
    1130.96040       158.6660        99.3181       0.548100         4.8772         2.1800         1.4916         1.6172         1.7383         1.7339         1.6773
    1131.11280       158.3850       106.9176       0.523600         4.7661         2.1864         1.5301         1.6546         1.7797         1.7773         1.7195
    1131.26520       157.8939       105.7089       0.530900         4.7159         2.1969         1.5292         1.6511         1.7774         1.7768         1.7237
    1131.41760       158.2914       102.9871       0.562800         4.7566         2.2061         1.5566         1.6567         1.7724         1.7700         1.7124
    1131.57000       157.2861       105.6189       0.561500         4.8468         2.2195         1.5260         1.6299         1.7449         1.7422         1.6891
    1131.72240       156.6998       111.2819       0.551700         4.9171         2.2292         1.4847         1.6149         1.7368         1.7377         1.6814
    1131.87480       156.2305       104.4222       0.506100         4.8906         2.2200         1.5067         1.6439         1.7638         1.7630         1.7095
    1132.02720       156.0853        96.6365       0.493100         4.8302         2.2141         1.5383         1.6602         1.7769         1.7718         1.7111
    1132.17960       156.1785        87.1065       0.476500         4.7806         2.2102         1.6122         1.6819         1.7734         1.7577         1.6931
    1132.33200       156.2740        83.6142       0.487300         4.7586         2.2182         1.6414         1.7168         1.8089         1.7936         1.7269
    1132.48440       156.1348        80.3259       0.486700         4.7324         2.2077         1.6762         1.7467         1.8360         1.8192         1.7488
    1132.63680       156.3264        86.3388       0.491100         4.6892         2.1910         1.7140         1.7419         1.8115         1.7887         1.7221
    1132.78920       156.5693        90.9288       0.468000         4.6736         2.1818         1.8122         1.7635         1.8213         1.7917         1.7198
    1132.94160       156.8217        91.8842       0.465700         4.6235         2.1737         1.7822         1.7424         1.8086         1.7815         1.7124
    1133.09400       156.6927        92.7645       0.479900         4.5983         2.1674         1.7062         1.7241         1.8169         1.8022         1.7388
    1133.24640       157.0034        90.7993       0.536000         4.6046         2.1631         1.6758         1.7009         1.7883         1.7730         1.7074
    1133.39880       156.7690        94.3609       0.547300         4.6788         2.1757         1.8063         1.7707         1.8358         1.8160         1.7470
    1133.55120       156.6917        95.2727       0.549300         4.7565         2.1904         1.7490         1.7297         1.8056         1.7888         1.7231
