~Version Information Block
VERS .                  2.0:  CWLS LOG ASCII STANDARD - VERSION 2.0
WRAP .                   NO:  One line per depth step
~Well Information Block
#MNEM.UNIT        Data Type   Information
#---------- ----------------  -----------
STRT .M           416.81400:  START DEPTH
STOP .M          1602.18120:  STOP DEPTH
STEP .M             0.15240:  STEP
NULL .              -999.25:  NULL VALUE
COMP .                     :  COMPANY
WELL .                 KJ-04:  WELL
FLD  .                     :  FIELD
LOC  .                     :  LOCATION
CTRY .                     :  COUNTRY
STAT .                     :  STATE
CNTY .                     :  COUNTY
SRVC .                     :  SERVICE COMPANY
DATE .                     :  DATE
API  .                     :  API NUMBER
UWI  .                     :  UNIQUE WELL ID
~Curve Information Block
#MNEM.UNIT         API CODE   Curve Description
#---------- ----------------  -----------------
DEPTH.M                    :  DEPTH (BOREHOLE)
DTC  .US/F                 :  Delta-T (also called Slowness or Interval Transit Time)
GR   .GAPI                 :  GR_1 Edited
NPHI .V/V                  :  NPHI_1 Edited
PEFZ .B/E                  :  PEFZ_1 Edited
RHOZ .G/C3                 :  Standard Resolution Formation Density (RHOZ_1 Edited)
RLA1 .OHMM                 :  Apparent Resistivity from Computed Focusing Mode 1
RLA2 .OHMM                 :  Apparent Resistivity from Computed Focusing Mode 2
RLA3 .OHMM                 :  Apparent Resistivity from Computed Focusing Mode 3
RLA4 .OHMM                 :  Apparent Resistivity from Computed Focusing Mode 4
RLA5 .OHMM                 :  RLA5_1 Edited (RLA5_2 Edited)
~Parameter Information Block
#MNEM.UNIT            Value   Description
#---------- ----------------  -----------
PROJECT.             KARJISAN:  
SET  .               SPLICE:  
~Other Information Block
# 
~A       DEPTH            DTC             GR           NPHI           PEFZ           RHOZ           RLA1           RLA2           RLA3           RLA4           RLA5 
# ...
    1200.91200       207.2010        92.4516       0.505900         4.3743         2.1940         1.2890         1.2991         1.3331         1.3207         1.2690
    1201.06440       207.1546        91.2476       0.523100         4.3642         2.1968         1.2832         1.2855         1.3163         1.3031         1.2533
    1201.21680       206.8788        94.6089       0.495600         4.3418         2.2062         1.2791         1.2877         1.3190         1.3064         1.2573
    1201.36920       207.2600        97.0133       0.514100         4.3483         2.2163         1.2952         1.3119         1.3494         1.3367         1.2932
    1201.52160       206.9613        97.6697       0.489600         4.3572         2.2140         1.3176         1.3401         1.3818         1.3687         1.3270
    1201.67400       205.9640        99.1995       0.487900         4.3825         2.2093         1.3103         1.3337         1.3754         1.3632         1.3222
    1201.82640       205.9814       100.8030       0.479100         4.4227         2.2009         1.3099         1.3460         1.3858         1.3707         1.3231
    1201.97880       205.2506       103.5155       0.476500         4.4874         2.2045         1.2673         1.3119         1.3501         1.3360         1.2912
    1202.13120       205.6413       105.5774       0.482000         4.5463         2.2016         1.2462         1.3008         1.3412         1.3260         1.2813
    1202.28360       206.7385       106.3556       0.491700         4.4984         2.1921         1.2353         1.2988         1.3368         1.3220         1.2751
    1202.43600       206.2122       100.3884       0.490700         4.3885         2.1845         1.2281         1.2763         1.3104         1.2912         1.2416
    1202.58840       206.5430        96.8326       0.501600         4.2340         2.1741         1.2470         1.2872         1.3193         1.2976         1.2524
    1202.74080       206.9328       103.5583       0.479700         4.1508         2.1805         1.2541         1.2930         1.3233         1.2989         1.2537
    1202.89320       207.7869       110.0582       0.544200         4.1232         2.1861         1.2386         1.2816         1.3073         1.2834         1.2427
    1203.04560       208.7524       115.1104       0.547400         4.1382         2.1933         1.2459         1.2830         1.3075         1.2842         1.2465
    1203.19800       183.1449       112.4389       0.558100         4.1439         2.1891         1.2165         1.2733         1.3013         1.2825         1.2497
    1203.35040       183.8979       108.6113       0.533500         4.2190         2.1815         1.2007         1.2588         1.2916         1.2756         1.2484
    1203.50280       185.3018        99.6195       0.504700         4.3729         2.1773         1.1364         1.1961         1.2369         1.2265         1.2072
    1203.65520       185.9694        96.6869       0.535700         4.7192         2.1877         1.0895         1.1862         1.2428         1.2384         1.2304
    1203.80760       187.5027        98.5322       0.529800         5.4812         2.2043         1.0307         1.1692         1.2397         1.2435         1.2392
    1203.96000       183.4986       104.3884       0.534000         6.3794         2.2344         1.0487         1.2237         1.3047         1.3138         1.3150
    1204.11240       177.9128       103.6425       0.513400         7.0868         2.2562         1.2486         1.5346         1.6496         1.6736         1.6795
    1204.26480       171.3940        98.2413       0.508600         7.2217         2.2914         1.2252         1.5693         1.7109         1.7459         1.7634
    1204.41720       137.2094        92.0035       0.503800         7.1833         2.3296         1.2766         1.6531         1.8311         1.8753         1.8969
    1204.56960       132.6046        90.2528       0.475700         7.1026         2.3415         1.1589         1.5054         1.7050         1.7527         1.7737
    1204.72200       134.2522        92.5172       0.473100         7.1645         2.3476         1.2170         1.6165         1.8857         1.9571         1.9827
    1204.87440       134.1084        93.8643       0.485700         7.2996         2.3554         1.3208         1.7443         2.0439         2.1406         2.1709
    1205.02680       134.1950        92.7047       0.507500         7.5502         2.3863         1.4174         1.8995         2.1965         2.3371         2.3766
    1205.17920       134.2479        89.8515       0.501400         7.6524         2.4078         1.3557         1.8193         2.0884         2.2294         2.2705
    1205.33160       128.5437        83.4918       0.501800         7.5035         2.4097         1.2613         1.6472         1.8703         1.9905         2.0279
    1205.48400       123.3879        78.9300       0.475300         7.0534         2.3848         1.3320         1.6611         1.8823         1.9809         2.0456
    1205.63640       122.1436        76.9206       0.510500         6.4330         2.3211         1.2925         1.6457         1.8697         1.9539         2.0157
    1205.78880       126.7825        77.6367       0.500400         5.8335         2.2555         1.2258         1.6083         1.8273         1.8886         1.9548
    1205.94120       129.5151        87.5676       0.506000         5.3696         2.2102         1.2852         1.6908         1.9140         1.9657         2.0446
    1206.09360       136.1322        93.7499       0.461900         5.1511         2.2068         1.4722         1.9191         2.1579         2.2050         2.2943
    1206.24600       135.6223        98.4283       0.413400         5.0850         2.2051         1.4309         1.8152         2.0113         2.0413         2.1157
    1206.39840       134.3426        93.9086       0.416500         5.1412         2.2059         1.2084         1.4532         1.5672         1.5850         1.6383
    1206.55080       137.4483        96.4874       0.411100         5.2251         2.2033         1.2051         1.3892         1.4830         1.5064         1.5569
    1206.70320       137.6982        97.8137       0.476700         5.3531         2.2220         1.3069         1.5158         1.6256         1.6562         1.7039
    1206.85560       132.7100        99.1688       0.461400         5.6403         2.2783         1.2665         1.4353         1.5340         1.5628         1.5983
    1207.00800       128.8894        90.7358       0.457900         6.0101         2.3860         1.2476         1.4393         1.5334         1.5610         1.5897
    1207.16040       115.3092        83.9607       0.436100         6.3523         2.4383         1.7300         2.1169         2.2943         2.3353         2.3656
    1207.31280       109.9263        76.0537       0.448200         6.4375         2.3974         2.2038         2.7595         3.0735         3.1294         3.1583
    1207.46520       121.7429        78.2039       0.457800         6.1761         2.3015         1.7950         2.0823         2.2814         2.3078         2.3047
    1207.61760       122.3212        86.1214       0.439800         5.7632         2.2428         1.8146         2.0174         2.1938         2.2153         2.2004
    1207.77000       130.0417        93.2830       0.442500         5.3341         2.2360         1.7933         1.9374         2.0918         2.1113         2.0931
    1207.92240       137.0896        92.6332       0.473500         5.0220         2.2185         1.7141         1.8390         1.9617         1.9781         1.9605
    1208.07480       136.0893        84.6152       0.476800         4.7903         2.2088         1.6376         1.7678         1.8505         1.8656         1.8453
    1208.22720       135.3593        85.6460       0.465600         4.6051         2.2084         1.5342         1.6726         1.7312         1.7429         1.7240
