~Version Information Block
VERS .                  2.0:  CWLS LOG ASCII STANDARD - VERSION 2.0
WRAP .                   NO:  One line per depth step
~Well Information Block
#MNEM.UNIT        Data Type   Information
#---------- ----------------  -----------
STRT .M           416.81400:  START DEPTH
STOP .M          1602.18120:  STOP DEPTH
STEP .M             0.15240:  STEP
NULL .              -999.25:  NULL VALUE
COMP .                     :  COMPANY
WELL .                 KJ-04:  WELL
FLD  .                     :  FIELD
LOC  .                     :  LOCATION
CTRY .                     :  COUNTRY
STAT .                     :  STATE
CNTY .                     :  COUNTY
SRVC .                     :  SERVICE COMPANY
DATE .                     :  DATE
API  .                     :  API NUMBER
UWI  .                     :  UNIQUE WELL ID
~Curve Information Block
#MNEM.UNIT         API CODE   Curve Description
#---------- ----------------  -----------------
DEPTH.M                    :  DEPTH (BOREHOLE)
DTC  .US/F                 :  Delta-T (also called Slowness or Interval Transit Time)
GR   .GAPI                 :  GR_1 Edited
NPHI .V/V                  :  NPHI_1 Edited
PEFZ .B/E                  :  PEFZ_1 Edited
RHOZ .G/C3                 :  Standard Resolution Formation Density (RHOZ_1 Edited)
RLA1 .OHMM                 :  Apparent Resistivity from Computed Focusing Mode 1
RLA2 .OHMM                 :  Apparent Resistivity from Computed Focusing Mode 2
RLA3 .OHMM                 :  Apparent Resistivity from Computed Focusing Mode 3
RLA4 .OHMM                 :  Apparent Resistivity from Computed Focusing Mode 4
RLA5 .OHMM                 :  RLA5_1 Edited (RLA5_2 Edited)
~Parameter Information Block
#MNEM.UNIT            Value   Description
#---------- ----------------  -----------
PROJECT.             KARJISAN:  
SET  .               SPLICE:  
~Other Information Block
# 
~A       DEPTH            DTC             GR           NPHI           PEFZ           RHOZ           RLA1           RLA2           RLA3           RLA4           RLA5 
     416.81400        64.8270        74.6856       0.463400        10.0000      -999.2500         0.0133         0.0115         0.0103         0.0090      -999.2500
     416.96640        65.0989        72.0561       0.436300        10.0000      -999.2500         0.0133         0.0115         0.0103         0.0090      -999.2500
     417.11880        57.1015        67.8877       0.433900        10.0000      -999.2500         0.0133         0.0115         0.0103         0.0090      -999.2500
     417.27120        65.0897        59.5905       0.443100        10.0000      -999.2500         0.0133         0.0115         0.0103         0.0090      -999.2500
     417.42360        64.8748        58.1333       0.497800        10.0000      -999.2500         0.0133         0.0115         0.0103         0.0090      -999.2500
     417.57600        65.4440        56.1027       0.541200        10.0000      -999.2500         0.0133         0.0115         0.0103         0.0090      -999.2500
     417.72840        65.7918        57.3253       0.545500        10.0000      -999.2500         0.0133         0.0115         0.0103         0.0090      -999.2500
     417.88080        66.4925        55.1070       0.552500        10.0000      -999.2500         0.0133         0.0115         0.0103         0.0090      -999.2500
     418.03320        66.3915        57.9436       0.529200        10.0000      -999.2500         0.0133         0.0115         0.0103         0.0090      -999.2500
     418.18560        66.6210        63.0163       0.509700        10.0000      -999.2500         0.0133         0.0115         0.0103         0.0090      -999.2500
     418.33800        66.8217        66.4207       0.488600        10.0000      -999.2500         0.0133         0.0115         0.0103         0.0090      -999.2500
     418.49040        66.8392        67.4881       0.479700        10.0000      -999.2500         0.0133         0.0115         0.0103         0.0090      -999.2500
     418.64280        66.7012        66.7413       0.490700        10.0000      -999.2500         0.0133         0.0115         0.0103         0.0090      -999.2500
     418.79520        74.5907        66.0889       0.494800        10.0000      -999.2500         0.0133         0.0115         0.0103         0.0090      -999.2500
     418.94760        67.8171        66.6313       0.539800        10.0000      -999.2500         0.0133         0.0115         0.0103         0.0090      -999.2500
     419.10000        66.8228        64.4644       0.504300        10.0000      -999.2500         0.0133         0.0115         0.0103         0.0090      -999.2500
     419.25240        66.9157        61.2625       0.505300        10.0000      -999.2500         0.0133         0.0115         0.0103         0.0090      -999.2500
     419.40480        67.1786        59.9175       0.457300        10.0000      -999.2500         0.0133         0.0115         0.0103         0.0090      -999.2500
     419.55720        67.6481        60.4036       0.510100        10.0000      -999.2500         0.0133         0.0115         0.0103         0.0090      -999.2500
     419.70960        74.8193        65.0934       0.497400        10.0000      -999.2500         0.0133         0.0115         0.0103         0.0090      -999.2500
     419.86200        74.7139        64.7710       0.474600        10.0000      -999.2500         0.0133         0.0115         0.0103         0.0090      -999.2500
     420.01440        74.4276        62.1086       0.438600        10.0000      -999.2500         0.0133         0.0115         0.0103         0.0090      -999.2500
     420.16680        67.1931        60.4947       0.430600        10.0000      -999.2500         0.0133         0.0115         0.0103         0.0090      -999.2500
     420.31920        67.1556        61.7925       0.448500        10.0000      -999.2500         0.0133         0.0115         0.0103         0.0090      -999.2500
     420.47160        67.2343        63.9952       0.416500        10.0000      -999.2500         0.0133         0.0115         0.0103         0.0090      -999.2500
     420.62400        67.3370        64.8932       0.398800        10.0000      -999.2500         0.0133         0.0115         0.0103         0.0090      -999.2500
     420.77640        66.7238        62.7313       0.362400        10.0000      -999.2500         0.0133         0.0115         0.0103         0.0090      -999.2500
     420.92880        66.7784        63.1660       0.350000        10.0000      -999.2500         0.0133         0.0115         0.0103         0.0090      -999.2500
     421.08120        65.9640        66.9034       0.358000        10.0000      -999.2500         0.0133         0.0115         0.0103         0.0090      -999.2500
     421.23360        65.4249        66.8264       0.432100        10.0000      -999.2500         0.0133         0.0115         0.0103         0.0090      -999.2500
     421.38600        65.1732        65.7725       0.512300        10.0000      -999.2500         0.0133         0.0115         0.0103         0.0090      -999.2500
     421.53840        56.6084        65.5111       0.538800        10.0000      -999.2500         0.0133         0.0115         0.0103         0.0090      -999.2500
     421.69080        56.2154        66.7963       0.513900        10.0000      -999.2500         0.0133         0.0115         0.0103         0.0090      -999.2500
     421.84320        56.1994        67.1871       0.529200        10.0000      -999.2500         0.0133         0.0115         0.0103         0.0090      -999.2500
     421.99560        56.3469        63.1323       0.520000        10.0000      -999.2500         0.0133         0.0115         0.0103         0.0090      -999.2500
     422.14800        56.2648        66.4407       0.507800        10.0000      -999.2500         0.0133         0.0115         0.0103         0.0090      -999.2500
     422.30040        56.4525        67.6837       0.483400        10.0000      -999.2500         0.0133         0.0115         0.0103         0.0090      -999.2500
     422.45280        56.5163        65.7678       0.502200        10.0000      -999.2500         0.0133         0.0115         0.0103         0.0090      -999.2500
     422.60520        56.5601        64.3575       0.528700        10.0000      -999.2500         0.0137         0.0119         0.0107         0.0094      -999.2500
     422.75760        56.5743        65.5124       0.514200        10.0000      -999.2500         0.0142         0.0122         0.0110         0.0097      -999.2500
     422.91000        56.6539        66.5116       0.535500        10.0000      -999.2500         0.0147         0.0127         0.0114         0.0100      -999.2500
     423.06240        56.6512        61.5475       0.491400        10.0000      -999.2500         0.0143         0.0123         0.0111         0.0097      -999.2500
     423.21480        56.6517        61.7916       0.480700        10.0000      -999.2500         0.0133         0.0116         0.0104         0.0091      -999.2500
     423.36720        56.4864        63.5427       0.473100        10.0000      -999.2500         0.0140         0.0121         0.0109         0.0096      -999.2500
     423.51960        56.5563        71.7253       0.498800        10.0000      -999.2500         0.0144         0.0124         0.0112         0.0099      -999.2500
     423.67200        57.0701        78.7692       0.512600        10.0000      -999.2500         0.0138         0.0120         0.0108         0.0096      -999.2500
     423.82440        56.4247        80.9866       0.545500        10.0000      -999.2500         0.0136         0.0117         0.0106         0.0094      -999.2500
     423.97680        56.2534        76.5371       0.543300        10.0000      -999.2500         0.0137         0.0117         0.0105         0.0093      -999.2500
     424.12920        56.1314        71.6778       0.550400        10.0000      -999.2500         0.0142         0.0122         0.0109         0.0097      -999.2500
