~Version Information Block
VERS .                  2.0:  CWLS LOG ASCII STANDARD - VERSION 2.0
WRAP .                   NO:  One line per depth step
~Well Information Block
#MNEM.UNIT        Data Type   Information
#---------- ----------------  -----------
STRT .M           416.81400:  START DEPTH
STOP .M          1602.18120:  STOP DEPTH
STEP .M             0.15240:  STEP
NULL .              -999.25:  NULL VALUE
COMP .                     :  COMPANY
WELL .                 KJ-04:  WELL
FLD  .                     :  FIELD
LOC  .                     :  LOCATION
CTRY .                     :  COUNTRY
STAT .                     :  STATE
CNTY .                     :  COUNTY
SRVC .                     :  SERVICE COMPANY
DATE .                     :  DATE
API  .                     :  API NUMBER
UWI  .                     :  UNIQUE WELL ID
~Curve Information Block
#MNEM.UNIT         API CODE   Curve Description
#---------- ----------------  -----------------
DEPTH.M                    :  DEPTH (BOREHOLE)
DTC  .US/F                 :  Delta-T (also called Slowness or Interval Transit Time)
GR   .GAPI                 :  GR_1 Edited
NPHI .V/V                  :  NPHI_1 Edited
PEFZ .B/E                  :  PEFZ_1 Edited
RHOZ .G/C3                 :  Standard Resolution Formation Density (RHOZ_1 Edited)
RLA1 .OHMM                 :  Apparent Resistivity from Computed Focusing Mode 1
RLA2 .OHMM                 :  Apparent Resistivity from Computed Focusing Mode 2
RLA3 .OHMM                 :  Apparent Resistivity from Computed Focusing Mode 3
RLA4 .OHMM                 :  Apparent Resistivity from Computed Focusing Mode 4
RLA5 .OHMM                 :  RLA5_1 Edited (RLA5_2 Edited)
~Parameter Information Block
#MNEM.UNIT            Value   Description
#---------- ----------------  -----------
PROJECT.             KARJISAN:  
SET  .               SPLICE:  
~Other Information Block
# 
~A       DEPTH            DTC             GR           NPHI           PEFZ           RHOZ           RLA1           RLA2           RLA3           RLA4           RLA5 
# ...
    1283.05560       209.0436        93.8555       0.470100         4.9260         2.1521         0.8660         0.9240         0.9778         0.9794         0.9515
    1283.20800       209.8713        87.3446       0.485100         4.9771         2.1325         0.8395         0.8924         0.9412         0.9404         0.9146
    1283.36040       210.4289        80.3292       0.481000         5.0052         2.1277         0.8476         0.8856         0.9302         0.9261         0.9013
    1283.51280       209.5761        83.1316       0.441600         4.9739         2.1405         0.9634         1.0221         1.0797         1.0570         1.0506
    1283.66520       208.4663        86.6650       0.438000         4.8672         2.1414         0.8760         0.9369         0.9692         0.9660         0.9474
    1283.81760       205.1982        90.7023       0.467100         4.7484         2.1353         0.8976         0.9417         0.9667         0.9647         0.9411
    1283.97000       182.9958        92.3276       0.480200         4.6872         2.1294         0.9072         0.9489         0.9776         0.9780         0.9548
    1284.12240       184.7741        89.9843       0.519300         4.7037         2.1306         0.9395         0.9645         1.0107         1.0139         0.9883
    1284.27480       183.6513        84.7028       0.521300         4.7998         2.1488         0.9431         0.9716         1.0273         1.0312         1.0062
    1284.42720       181.6470        75.9092       0.541700         4.9074         2.1938         0.9313         0.9785         1.0423         1.0499         1.0284
    1284.57960       195.9768        70.6737       0.511700         4.9851         2.2506         1.0684         1.1744         1.2607         1.2724         1.2481
    1284.73200       190.7066        73.1331       0.496200         4.9790         2.2841         1.2069         1.3683         1.4789         1.4929         1.4660
    1284.88440       182.5661        78.1173       0.470000         4.8715         2.2528         1.3096         1.5233         1.6539         1.6655         1.6380
    1285.03680       180.9146        80.9193       0.442000         4.6912         2.1939         0.9541         1.1248         1.2194         1.2238         1.2085
    1285.18920       180.2071        83.7623       0.461600         4.5044         2.1520         0.8666         0.9923         1.0676         1.0717         1.0621
    1285.34160       168.1111        83.6513       0.470700         4.3659         2.1509         0.8447         0.9318         0.9908         0.9936         0.9852
    1285.49400       152.8644        83.8764       0.493100         4.2993         2.1636         0.8374         0.9206         0.9653         0.9702         0.9637
    1285.64640       155.1455        83.1329       0.481800         4.2854         2.1704         0.8402         0.9244         0.9582         0.9640         0.9587
    1285.79880       167.4097        81.9970       0.462800         4.3134         2.1724         0.8853         0.9673         0.9895         0.9927         0.9808
    1285.95120       166.3966        84.7470       0.443300         4.3566         2.1820         0.8903         0.9519         0.9854         0.9883         0.9795
    1286.10360       166.7253        87.5031       0.429100         4.4356         2.2067         0.8278         0.8903         0.9418         0.9426         0.9345
    1286.25600       170.2045        83.9688       0.439300         4.5010         2.2247         0.8470         0.9347         0.9973         0.9999         0.9904
    1286.40840       170.2370        80.4238       0.478700         4.5507         2.2300         1.0270         1.1802         1.2805         1.2948         1.2743
    1286.56080       184.1871        76.5085       0.477200         4.5769         2.2559         1.0969         1.2976         1.4181         1.4437         1.4161
    1286.71320       179.5740        77.0188       0.461400         4.6238         2.2750         1.1238         1.3346         1.4625         1.4880         1.4548
    1286.86560       162.0447        73.5709       0.449900         4.6817         2.2714         1.0564         1.2510         1.3687         1.3959         1.3690
    1287.01800       163.2588        72.3309       0.503600         4.7111         2.2167         0.8890         1.0482         1.1478         1.1663         1.1477
    1287.17040       165.4090        79.0014       0.549300         4.7037         2.1865         0.8895         1.0567         1.1513         1.1696         1.1522
    1287.32280       171.5699        87.3740       0.529100         4.6626         2.1884         0.8755         1.0311         1.1049         1.1172         1.0965
    1287.47520       173.7814        89.0478       0.475000         4.6021         2.2077         0.9001         1.0556         1.1238         1.1342         1.1178
    1287.62760       173.3716        83.3822       0.443000         4.5317         2.2143         0.8756         1.0351         1.0966         1.1036         1.0856
    1287.78000       188.1003        85.8192       0.444900         4.4892         2.2073         0.8739         1.0204         1.0710         1.0774         1.0595
    1287.93240       163.6016        89.5723       0.450400         4.4776         2.1987         0.8629         0.9923         1.0416         1.0462         1.0308
    1288.08480       166.0092        95.0831       0.454300         4.4994         2.1947         0.8380         0.9524         1.0052         1.0074         0.9912
    1288.23720       167.8393        93.6175       0.477100         4.5397         2.2044         0.9654         1.0960         1.1667         1.1680         1.1574
    1288.38960       169.2299        91.5449       0.506800         4.5803         2.2091         1.0117         1.1454         1.2222         1.2228         1.2062
    1288.54200       167.3580        91.9622       0.498200         4.6045         2.2178         1.0156         1.1584         1.2362         1.2334         1.2157
    1288.69440       179.2339        90.5297       0.499600         4.5915         2.2229         1.1215         1.3044         1.3828         1.3774         1.3522
    1288.84680       179.9204        92.8662       0.467600         4.5778         2.2317         1.1460         1.3480         1.4277         1.4211         1.3917
    1288.99920       173.3274        91.3070       0.498600         4.5889         2.2339         1.0883         1.2602         1.3245         1.3206         1.2934
    1289.15160       163.7429        97.3310       0.483700         4.6084         2.2423         1.0759         1.2201         1.2761         1.2770         1.2551
    1289.30400       155.4889        99.2592       0.479500         4.5945         2.2632         0.9972         1.1208         1.1721         1.1764         1.1556
    1289.45640       138.6458        98.7791       0.477200         4.5200         2.2721         0.9779         1.0671         1.1163         1.1199         1.0996
    1289.60880       141.4132        92.7685       0.485500         4.4082         2.2681         1.0043         1.1026         1.1520         1.1538         1.1287
    1289.76120       137.7980        86.8345       0.508600         4.2960         2.2494         1.0276         1.1405         1.1963         1.1955         1.1650
    1289.91360       140.3231        82.1549       0.487800         4.2025         2.2378         1.2131         1.3815         1.4547         1.4526         1.4128
    1290.06600       154.1464        81.3256       0.487100         4.1180         2.2177         1.4109         1.6324         1.7218         1.7204         1.6735
    1290.21840       152.6948        80.6053       0.478600         4.0808         2.1945         1.1618         1.3102         1.3828         1.3799         1.3341
    1290.37080       127.8899        84.9509       0.474700         4.1768         2.1908         1.1153         1.2530         1.3274         1.3236         1.2801
