~Version Information Block
VERS .                  2.0:  CWLS LOG ASCII STANDARD - VERSION 2.0
WRAP .                   NO:  One line per depth step
~Well Information Block
#MNEM.UNIT        Data Type   Information
#---------- ----------------  -----------
STRT .M           416.81400:  START DEPTH
STOP .M          1602.18120:  STOP DEPTH
STEP .M             0.15240:  STEP
NULL .              -999.25:  NULL VALUE
COMP .                     :  COMPANY
WELL .                 KJ-04:  WELL
FLD  .                     :  FIELD
LOC  .                     :  LOCATION
CTRY .                     :  COUNTRY
STAT .                     :  STATE
CNTY .                     :  COUNTY
SRVC .                     :  SERVICE COMPANY
DATE .                     :  DATE
API  .                     :  API NUMBER
UWI  .                     :  UNIQUE WELL ID
~Curve Information Block
#MNEM.UNIT         API CODE   Curve Description
#---------- ----------------  -----------------
DEPTH.M                    :  DEPTH (BOREHOLE)
DTC  .US/F                 :  Delta-T (also called Slowness or Interval Transit Time)
GR   .GAPI                 :  GR_1 Edited
NPHI .V/V                  :  NPHI_1 Edited
PEFZ .B/E                  :  PEFZ_1 Edited
RHOZ .G/C3                 :  Standard Resolution Formation Density (RHOZ_1 Edited)
RLA1 .OHMM                 :  Apparent Resistivity from Computed Focusing Mode 1
RLA2 .OHMM                 :  Apparent Resistivity from Computed Focusing Mode 2
RLA3 .OHMM                 :  Apparent Resistivity from Computed Focusing Mode 3
RLA4 .OHMM                 :  Apparent Resistivity from Computed Focusing Mode 4
RLA5 .OHMM                 :  RLA5_1 Edited (RLA5_2 Edited)
~Parameter Information Block
#MNEM.UNIT            Value   Description
#---------- ----------------  -----------
PROJECT.             KARJISAN:  
SET  .               SPLICE:  
~Other Information Block
# 
~A       DEPTH            DTC             GR           NPHI           PEFZ           RHOZ           RLA1           RLA2           RLA3           RLA4           RLA5 
# ...
     969.41640       178.5619        76.6272       0.489400         3.8432         2.0251         0.7324         0.9127         1.0500         1.0751         1.0870
     969.56880       185.7715        83.8348       0.539000         3.8479         2.0431         0.7220         0.8712         0.9708         0.9825         0.9897
     969.72120       196.5301        81.5296       0.538900         3.9144         2.0582         0.7684         0.8846         0.9655         0.9709         0.9749
     969.87360       195.9514        75.1679       0.534600         4.1143         2.0832         0.8179         0.9064         0.9731         0.9745         0.9735
     970.02600       194.4328        74.4981       0.515400         4.3588         2.1038         0.8079         0.9207         0.9774         0.9794         0.9776
     970.17840       210.2466        82.8048       0.493400         4.3832         2.1226         0.7889         0.9112         0.9679         0.9748         0.9753
     970.33080       210.4355        88.8197       0.481800         4.2130         2.1348         0.8073         0.9236         1.0029         1.0124         1.0152
     970.48320       212.8745       102.8940       0.426600         4.0126         2.1361         0.8714         1.0017         1.1063         1.1179         1.1216
     970.63560       211.3477       114.1075       0.460400         3.9771         2.1391         1.0476         1.2370         1.3834         1.4072         1.4136
     970.78800       202.6165       123.0631       0.476400         4.0515         2.1614         1.2648         1.5701         1.7684         1.8163         1.8320
     970.94040       196.9297       123.0539       0.528000         4.0650         2.1932         1.3116         1.7026         1.9261         1.9905         2.0145
     971.09280       194.2328       127.3636       0.535300         3.9716         2.2149         1.2921         1.6903         1.9189         1.9896         2.0266
     971.24520       191.8759       124.5363       0.521400         3.8312         2.2187         1.3351         1.7436         2.0000         2.0783         2.1259
     971.39760       188.7562       117.3924       0.495600         3.7745         2.2196         1.3658         1.7579         2.0243         2.1059         2.1567
     971.55000       185.9241       115.5622       0.503400         3.8376         2.2259         1.3960         1.7193         1.9592         2.0466         2.1058
     971.70240       163.9110       114.2794       0.553800         3.9366         2.2379         1.3140         1.5760         1.7741         1.8604         1.9277
     971.85480       165.6514       113.7327       0.556800         4.0134         2.2543         1.3128         1.5721         1.7661         1.8515         1.9152
     972.00720       166.6894       106.2367       0.547300         3.9943         2.2666         1.3053         1.6021         1.8212         1.9010         1.9908
     972.15960       169.2246       101.1458       0.518900         3.9969         2.2588         1.2393         1.5241         1.7125         1.7731         1.8494
     972.31200       170.2715        94.8515       0.553400         4.0072         2.2425         1.1938         1.5070         1.7122         1.7806         1.8736
     972.46440       171.1441        85.3042       0.517000         4.0778         2.2329         1.1685         1.4671         1.6671         1.7296         1.8196
     972.61680       172.7037        85.9249       0.495700         4.0724         2.2190         1.1388         1.4448         1.6546         1.7173         1.8126
     972.76920       174.4555        87.1940       0.502300         4.0150         2.1967         1.0738         1.3510         1.5526         1.6114         1.7050
     972.92160       176.0601        86.0295       0.536200         3.9512         2.1796         1.0428         1.3065         1.4975         1.5542         1.6372
     973.07400       177.5879        85.2580       0.543000         3.9833         2.1798         1.0299         1.2828         1.4667         1.5254         1.6081
     973.22640       178.9367        86.3698       0.536700         4.1314         2.1939         1.0127         1.2544         1.4304         1.4893         1.5625
     973.37880       178.7571        94.0207       0.536300         4.3234         2.2031         0.9981         1.2351         1.4050         1.4633         1.5288
     973.53120       178.3956        92.3633       0.512000         4.4681         2.2105         0.9930         1.2203         1.3867         1.4428         1.5138
     973.68360       177.6088        92.3327       0.468000         4.5300         2.2178         0.9989         1.2168         1.3845         1.4443         1.4934
     973.83600       177.7988        85.0136       0.450400         4.5265         2.2231         1.0165         1.2283         1.4035         1.4702         1.5317
     973.98840       178.9517        89.0498       0.466900         4.5250         2.2262         1.0191         1.2275         1.3994         1.4654         1.5224
     974.14080       179.3748        86.4994       0.466200         4.5280         2.2164         1.0193         1.2379         1.4141         1.4841         1.5420
     974.29320       181.3187        86.6870       0.446100         4.5259         2.2105         1.0234         1.2180         1.3859         1.4544         1.5074
     974.44560       182.3508        86.1727       0.420900         4.4837         2.1931         1.0230         1.2148         1.3829         1.4510         1.5066
     974.59800       183.6488        81.0910       0.417700         4.4252         2.1786         0.9381         1.1071         1.2501         1.3054         1.3562
     974.75040       185.2596        80.2252       0.467400         4.3657         2.1542         0.9290         1.1016         1.2292         1.2805         1.3256
     974.90280       186.8110        75.7237       0.476600         4.3621         2.1478         0.9350         1.0965         1.2188         1.2686         1.3115
     975.05520       187.9875        82.5921       0.490900         4.3457         2.1419         0.9302         1.0826         1.1990         1.2462         1.2855
     975.20760       188.3765        87.1201       0.498300         4.3454         2.1381         0.8940         1.0366         1.1428         1.1863         1.2230
     975.36000       187.7476        86.6130       0.538700         4.3823         2.1245         0.9073         1.0499         1.1598         1.2005         1.2360
     975.51240       187.6088        84.8015       0.583500         4.4504         2.1194         0.9003         1.0307         1.1406         1.1749         1.2025
     975.66480       186.9518        88.9545       0.609600         4.4554         2.1274         0.9053         1.0487         1.1650         1.1973         1.2270
     975.81720       186.6489        90.3450       0.575600         4.3897         2.1387         0.9438         1.1040         1.2275         1.2594         1.2888
     975.96960       185.8536        90.2163       0.564700         4.3526         2.1485         1.0254         1.2179         1.3622         1.4035         1.4402
     976.12200       181.8504        79.1805       0.536600         4.4443         2.1431         1.0194         1.2025         1.3501         1.3922         1.4314
     976.27440       156.5681        76.4504       0.552700         4.5421         2.1369         0.9850         1.1703         1.3163         1.3595         1.3983
     976.42680       156.7589        75.8708       0.556100         4.4838         2.1318         0.9415         1.0998         1.2312         1.2721         1.3059
     976.57920       158.3788        78.2749       0.564000         4.2154         2.1346         0.9491         1.1228         1.2617         1.3082         1.3442
     976.73160       159.7825        87.1170       0.591600         3.8753         2.1397         0.9748         1.1708         1.3180         1.3739         1.4122
