~Version Information Block
VERS .                  2.0:  CWLS LOG ASCII STANDARD - VERSION 2.0
WRAP .                   NO:  One line per depth step
~Well Information Block
#MNEM.UNIT        Data Type   Information
#---------- ----------------  -----------
STRT .M           416.81400:  START DEPTH
STOP .M          1602.18120:  STOP DEPTH
STEP .M             0.15240:  STEP
NULL .              -999.25:  NULL VALUE
COMP .                     :  COMPANY
WELL .                 KJ-04:  WELL
FLD  .                     :  FIELD
LOC  .                     :  LOCATION
CTRY .                     :  COUNTRY
STAT .                     :  STATE
CNTY .                     :  COUNTY
SRVC .                     :  SERVICE COMPANY
DATE .                     :  DATE
API  .                     :  API NUMBER
UWI  .                     :  UNIQUE WELL ID
~Curve Information Block
#MNEM.UNIT         API CODE   Curve Description
#---------- ----------------  -----------------
DEPTH.M                    :  DEPTH (BOREHOLE)
DTC  .US/F                 :  Delta-T (also called Slowness or Interval Transit Time)
GR   .GAPI                 :  GR_1 Edited
NPHI .V/V                  :  NPHI_1 Edited
PEFZ .B/E                  :  PEFZ_1 Edited
RHOZ .G/C3                 :  Standard Resolution Formation Density (RHOZ_1 Edited)
RLA1 .OHMM                 :  Apparent Resistivity from Computed Focusing Mode 1
RLA2 .OHMM                 :  Apparent Resistivity from Computed Focusing Mode 2
RLA3 .OHMM                 :  Apparent Resistivity from Computed Focusing Mode 3
RLA4 .OHMM                 :  Apparent Resistivity from Computed Focusing Mode 4
RLA5 .OHMM                 :  RLA5_1 Edited (RLA5_2 Edited)
~Parameter Information Block
#MNEM.UNIT            Value   Description
#---------- ----------------  -----------
PROJECT.             KARJISAN:  
SET  .               SPLICE:  
~Other Information Block
# 
~A       DEPTH            DTC             GR           NPHI           PEFZ           RHOZ           RLA1           RLA2           RLA3           RLA4           RLA5 
# ...
    1044.09240       132.4949        93.6538       0.514400         4.9179         2.2759         1.9861         2.4502         2.7212         2.7654         2.8190
    1044.24480       131.7773        95.8243       0.528500         4.9991         2.2710         1.9750         2.4159         2.6489         2.7016         2.7495
    1044.39720       130.8853        92.3869       0.509600         4.9741         2.2589         2.0063         2.4191         2.6360         2.6906         2.7389
    1044.54960       129.8773        85.6140       0.544900         4.9879         2.2380         1.9994         2.3874         2.6107         2.6643         2.7066
    1044.70200       128.7727        81.9416       0.548500         5.1392         2.2200         2.1085         2.4609         2.6855         2.7324         2.7743
    1044.85440       128.1859        83.3959       0.517500         5.3356         2.2228         2.2368         2.5920         2.8308         2.8830         2.9313
    1045.00680       127.5597        90.5662       0.489700         5.4391         2.2513         2.2805         2.6734         2.9264         2.9834         3.0190
    1045.15920       128.0009        88.9613       0.513200         5.3627         2.2796         2.3562         2.7303         2.9815         3.0359         3.0446
    1045.31160       128.3367        89.2464       0.534300         5.1172         2.2950         2.3560         2.6443         2.8836         2.9309         2.9280
    1045.46400       128.7177        86.3023       0.523600         4.7913         2.3091         2.2535         2.5735         2.8215         2.8669         2.8621
    1045.61640       130.9020        90.4512       0.482000         4.5016         2.3202         2.1565         2.5002         2.7447         2.7904         2.7824
    1045.76880       133.9436        93.2421       0.481600         4.2394         2.3161         2.0975         2.4138         2.6491         2.6955         2.6842
    1045.92120       138.8895       103.6720       0.509800         3.9283         2.2758         1.8738         2.1209         2.3076         2.3446         2.3261
    1046.07360       142.3896       108.1478       0.532600         3.6013         2.2310         1.7438         2.0111         2.1791         2.2064         2.1854
    1046.22600       144.3196       107.5746       0.526000         3.3711         2.2018         1.6561         1.9829         2.1576         2.1808         2.1579
    1046.37840       144.4212       102.5837       0.535200         3.2534         2.2067         1.6060         1.9452         2.1219         2.1417         2.1177
    1046.53080       142.4648       106.2393       0.535300         3.1995         2.2206         1.5699         1.9325         2.1154         2.1285         2.1026
    1046.68320       140.7373       111.6206       0.558800         3.1525         2.2310         1.5780         1.9246         2.1147         2.1230         2.0986
    1046.83560       139.9632       116.7625       0.507400         3.1520         2.2252         1.5208         1.9592         2.1786         2.1889         2.1615
    1046.98800       139.2142       117.2003       0.498800         3.1648         2.2124         1.5573         2.0344         2.2669         2.2802         2.2532
    1047.14040       139.5285       122.1958       0.493500         3.1667         2.2069         1.5711         1.9609         2.1799         2.2020         2.1738
    1047.29280       140.1150       134.8443       0.479800         3.1612         2.2168         1.5613         1.8860         2.0956         2.1327         2.1065
    1047.44520       139.5973       148.4393       0.484900         3.2028         2.2275         1.5497         1.9349         2.1607         2.2099         2.1885
    1047.59760       138.7676       158.9455       0.459300         3.3455         2.2401         1.5707         1.9718         2.2047         2.2578         2.2380
    1047.75000       137.4044       159.1453       0.468000         3.6219         2.2505         1.6602         2.0770         2.3267         2.3846         2.3679
    1047.90240       133.3719       143.4408       0.463800         4.0435         2.2646         1.8233         2.2894         2.5621         2.6223         2.6072
    1048.05480       130.4032       118.0569       0.515100         4.4504         2.2725         1.9273         2.4241         2.7157         2.7822         2.7739
    1048.20720       128.5883        96.9437       0.532000         4.7745         2.2857         2.0765         2.5582         2.8536         2.9200         2.9120
    1048.35960       127.4443        92.2670       0.531300         4.9007         2.2929         2.1299         2.4967         2.7542         2.8120         2.8104
    1048.51200       129.9403        94.6655       0.506500         4.8540         2.2929         2.1063         2.4606         2.7113         2.7698         2.7783
    1048.66440       132.5056        89.6902       0.524000         4.6856         2.2676         2.0132         2.3066         2.5345         2.5954         2.6096
    1048.81680       136.4811        88.2451       0.525000         4.5819         2.2499         1.8872         2.1413         2.3350         2.3922         2.4126
    1048.96920       137.6333        85.7976       0.509100         4.7029         2.2528         1.9072         2.2185         2.4119         2.4653         2.4957
    1049.12160       136.3907        89.3360       0.503200         4.8326         2.2947         1.9568         2.3450         2.5539         2.6028         2.6408
    1049.27400       130.1984        87.2635       0.521600         4.7535         2.3219         1.9805         2.3640         2.5681         2.6082         2.6469
    1049.42640       126.9477        84.3071       0.541500         4.4290         2.3123         2.0260         2.4715         2.7010         2.7334         2.7718
    1049.57880       125.6483        80.5032       0.533500         4.1019         2.2852         1.8640         2.2504         2.4469         2.4707         2.5046
    1049.73120       127.1118        72.3452       0.483400         3.9494         2.2786         1.8687         2.2747         2.4831         2.5037         2.5267
    1049.88360       131.3398        68.9024       0.441000         3.9464         2.2968         1.8130         2.2235         2.4565         2.4833         2.5165
    1050.03600       134.7879        70.1986       0.439000         3.9384         2.2927         1.7477         2.1251         2.3395         2.3700         2.4049
    1050.18840       136.5746        80.7322       0.482100         3.7914         2.2628         1.6672         2.1020         2.3003         2.3307         2.3731
    1050.34080       137.1811        81.8976       0.501700         3.5445         2.2095         1.6044         2.0703         2.2787         2.3047         2.3483
    1050.49320       134.7532        77.5457       0.500000         3.3315         2.1766         1.6354         2.1683         2.3959         2.4236         2.4706
    1050.64560       129.7537        72.5308       0.472900         3.3999         2.1915         1.8233         2.4420         2.7245         2.7595         2.8173
    1050.79800       127.0632        84.9547       0.506600         3.6879         2.2488         1.6155         2.0007         2.2042         2.2475         2.2846
    1050.95040       127.3454       101.4660       0.506300         4.0687         2.3013         1.5846         1.8942         2.0663         2.1230         2.1455
    1051.10280       128.5530       135.1586       0.525300         4.2977         2.3224         1.5457         1.8247         1.9728         2.0507         2.0683
    1051.25520       133.6453       159.6970       0.507500         4.2974         2.3058         1.2478         1.3842         1.5121         1.5711         1.5775
    1051.40760       136.1490       162.8762       0.526500         4.0966         2.2560         1.2892         1.4316         1.5756         1.6334         1.6423
