~Version Information Block
VERS .                  2.0:  CWLS LOG ASCII STANDARD - VERSION 2.0
WRAP .                   NO:  One line per depth step
~Well Information Block
#MNEM.UNIT        Data Type   Information
#---------- ----------------  -----------
STRT .M           416.81400:  START DEPTH
STOP .M          1602.18120:  STOP DEPTH
STEP .M             0.15240:  STEP
NULL .              -999.25:  NULL VALUE
COMP .                     :  COMPANY
WELL .                 KJ-04:  WELL
FLD  .                     :  FIELD
LOC  .                     :  LOCATION
CTRY .                     :  COUNTRY
STAT .                     :  STATE
CNTY .                     :  COUNTY
SRVC .                     :  SERVICE COMPANY
DATE .                     :  DATE
API  .                     :  API NUMBER
UWI  .                     :  UNIQUE WELL ID
~Curve Information Block
#MNEM.UNIT         API CODE   Curve Description
#---------- ----------------  -----------------
DEPTH.M                    :  DEPTH (BOREHOLE)
DTC  .US/F                 :  Delta-T (also called Slowness or Interval Transit Time)
GR   .GAPI                 :  GR_1 Edited
NPHI .V/V                  :  NPHI_1 Edited
PEFZ .B/E                  :  PEFZ_1 Edited
RHOZ .G/C3                 :  Standard Resolution Formation Density (RHOZ_1 Edited)
RLA1 .OHMM                 :  Apparent Resistivity from Computed Focusing Mode 1
RLA2 .OHMM                 :  Apparent Resistivity from Computed Focusing Mode 2
RLA3 .OHMM                 :  Apparent Resistivity from Computed Focusing Mode 3
RLA4 .OHMM                 :  Apparent Resistivity from Computed Focusing Mode 4
RLA5 .OHMM                 :  RLA5_1 Edited (RLA5_2 Edited)
~Parameter Information Block
#MNEM.UNIT            Value   Description
#---------- ----------------  -----------
PROJECT.             KARJISAN:  
SET  .               SPLICE:  
~Other Information Block
# 
~A       DEPTH            DTC             GR           NPHI           PEFZ           RHOZ           RLA1           RLA2           RLA3           RLA4           RLA5 
# ...
     573.63360       193.5049       121.7887       0.444400         3.4954         2.1427         1.5343         1.9039         2.1394         2.2340         2.2672
     573.78600       193.2853       139.7682       0.448500         3.4292         2.1379         1.4767         1.8545         2.1417         2.2334         2.2737
     573.93840       191.6752       155.5256       0.427500         3.3523         2.1206         1.3623         1.7346         2.0851         2.1836         2.2385
     574.09080       189.3835       159.9429       0.407900         3.2774         2.1078         1.1531         1.4854         1.7754         1.8554         1.9053
     574.24320       189.9167       147.3513       0.377200         3.2001         2.1043         1.1672         1.5970         1.8729         1.9707         2.0295
     574.39560       190.1372       126.0169       0.383000         3.1296         2.1122         1.2395         1.8032         2.0884         2.2043         2.2736
     574.54800       190.1405       103.7344       0.373800         3.0471         2.1132         1.2601         1.8047         2.0776         2.1872         2.2555
     574.70040       190.6005        84.9408       0.380800         3.0145         2.0955         1.2595         1.7499         2.0236         2.1193         2.1844
     574.85280       190.2645        78.6147       0.365800         3.0143         2.0809         0.9940         1.3214         1.5386         1.6040         1.6513
     575.00520       190.6998        85.0356       0.379200         3.0727         2.0891         1.1042         1.4730         1.7500         1.8230         1.8818
     575.15760       192.3918        99.5231       0.400300         3.1557         2.1105         1.3513         1.7707         2.1024         2.1812         2.2433
     575.31000       190.2150       108.0772       0.435600         3.2379         2.1264         1.6336         2.0878         2.4502         2.5446         2.6193
     575.46240       190.9769       112.4581       0.418300         3.3219         2.1270         1.5768         1.9471         2.2300         2.3160         2.3778
     575.61480       194.7219       108.0176       0.444600         3.4014         2.1206         1.5041         1.7957         2.0220         2.1068         2.1588
     575.76720       196.6621       111.4706       0.465000         3.5017         2.1096         1.4557         1.6880         1.8978         1.9840         2.0315
     575.91960       194.4349       109.1559       0.498700         3.6280         2.1101         1.5011         1.7267         1.9409         2.0315         2.0785
     576.07200       190.6519       111.0888       0.481300         3.7944         2.1382         1.3855         1.5736         1.7553         1.8405         1.8819
     576.22440       190.0070       106.0423       0.480200         3.9780         2.1932         1.2811         1.4454         1.5926         1.6676         1.7054
     576.37680       191.9570        99.6058       0.502400         4.1335         2.2290         1.3979         1.6563         1.8235         1.9039         1.9497
     576.52920       167.0171        91.8585       0.482100         4.2793         2.2611         1.5336         1.8963         2.0973         2.1732         2.2203
     576.68160       167.3817        90.2364       0.443500         4.4522         2.3116         1.6595         2.1067         2.3428         2.4066         2.4533
     576.83400       168.2880        94.8674       0.410000         4.5593         2.3565         1.6882         2.1954         2.4780         2.5432         2.5956
     576.98640       169.5380        98.4955       0.399500         4.4567         2.3013         1.2538         1.5312         1.7095         1.7474         1.7854
     577.13880       170.9435       101.6775       0.435000         4.1636         2.1902         1.2881         1.5464         1.7103         1.7490         1.7840
     577.29120       177.2325       104.9884       0.470000         3.8641         2.0946         1.3169         1.5820         1.7348         1.7751         1.8086
     577.44360       181.9048       108.5943       0.517300         3.7005         2.0768         1.3087         1.5733         1.6994         1.7403         1.7699
     577.59600       187.1152       109.6184       0.529800         3.6369         2.0869         1.2800         1.5428         1.6490         1.6835         1.6992
     577.74840       187.8525       113.7360       0.521400         3.6014         2.1024         1.3158         1.5885         1.6956         1.7211         1.7377
     577.90080       188.9462       110.2517       0.526700         3.5834         2.1186         1.3538         1.6364         1.7604         1.7761         1.7914
     578.05320       166.9434       103.6327       0.511100         3.5847         2.1188         1.3830         1.6492         1.7719         1.7773         1.7823
     578.20560       169.8854        94.2604       0.516100         3.6077         2.1078         1.4057         1.6715         1.7944         1.7986         1.7961
     578.35800       171.1310        94.5049       0.505000         3.6563         2.1035         1.3974         1.6489         1.7581         1.7635         1.7575
     578.51040       171.1465        93.7807       0.504400         3.6805         2.1079         1.4265         1.6808         1.7880         1.7946         1.7862
     578.66280       171.2593        98.3245       0.500100         3.6881         2.1094         1.4452         1.6967         1.8064         1.8149         1.8000
     578.81520       170.9358        97.2721       0.508600         3.6879         2.1038         1.4271         1.6740         1.7814         1.7883         1.7700
     578.96760       170.9696        99.2025       0.476400         3.7007         2.0983         1.4289         1.6724         1.7803         1.7847         1.7662
     579.12000       170.8191        95.8770       0.464200         3.7001         2.0993         1.4336         1.6628         1.7702         1.7723         1.7538
     579.27240       170.4599        97.6661       0.403300         3.6720         2.0981         1.4890         1.7283         1.8312         1.8326         1.8099
     579.42480       170.7620       103.4626       0.454700         3.6507         2.0876         1.5189         1.7956         1.9039         1.9035         1.8743
     579.57720       171.0916       109.6232       0.480600         3.6541         2.0806         1.5061         1.7679         1.8749         1.8739         1.8458
     579.72960       171.2196       111.9480       0.501400         3.6667         2.0795         1.4825         1.7434         1.8490         1.8470         1.8172
     579.88200       171.3821       111.3685       0.483600         3.6716         2.0777         1.4531         1.7065         1.8127         1.8093         1.7794
     580.03440       171.1920       106.6824       0.464100         3.6446         2.0782         1.3733         1.5917         1.6850         1.6809         1.6540
     580.18680       170.5005       103.2724       0.447100         3.5961         2.0748         1.4150         1.6557         1.7492         1.7479         1.7215
     580.33920       170.1387        99.0281       0.450000         3.5490         2.0702         1.4484         1.7114         1.8027         1.8003         1.7744
     580.49160       170.2313       103.2764       0.447700         3.5360         2.0648         1.4727         1.7473         1.8452         1.8407         1.8117
     580.64400       170.4311       102.7046       0.467000         3.5396         2.0568         1.3924         1.6565         1.7573         1.7538         1.7260
     580.79640       170.4072       108.2196       0.475400         3.5268         2.0518         1.4136         1.6564         1.7516         1.7497         1.7175
     580.94880       170.3718       102.3376       0.462200         3.5203         2.0585         1.4336         1.6707         1.7769         1.7752         1.7428
