~Version Information Block
VERS .                  2.0:  CWLS LOG ASCII STANDARD - VERSION 2.0
WRAP .                   NO:  One line per depth step
~Well Information Block
#MNEM.UNIT        Data Type   Information
#---------- ----------------  -----------
STRT .M           416.81400:  START DEPTH
STOP .M          1602.18120:  STOP DEPTH
STEP .M             0.15240:  STEP
NULL .              -999.25:  NULL VALUE
COMP .                     :  COMPANY
WELL .                 KJ-04:  WELL
FLD  .                     :  FIELD
LOC  .                     :  LOCATION
CTRY .                     :  COUNTRY
STAT .                     :  STATE
CNTY .                     :  COUNTY
SRVC .                     :  SERVICE COMPANY
DATE .                     :  DATE
API  .                     :  API NUMBER
UWI  .                     :  UNIQUE WELL ID
~Curve Information Block
#MNEM.UNIT         API CODE   Curve Description
#---------- ----------------  -----------------
DEPTH.M                    :  DEPTH (BOREHOLE)
DTC  .US/F                 :  Delta-T (also called Slowness or Interval Transit Time)
GR   .GAPI                 :  GR_1 Edited
NPHI .V/V                  :  NPHI_1 Edited
PEFZ .B/E                  :  PEFZ_1 Edited
RHOZ .G/C3                 :  Standard Resolution Formation Density (RHOZ_1 Edited)
RLA1 .OHMM                 :  Apparent Resistivity from Computed Focusing Mode 1
RLA2 .OHMM                 :  Apparent Resistivity from Computed Focusing Mode 2
RLA3 .OHMM                 :  Apparent Resistivity from Computed Focusing Mode 3
RLA4 .OHMM                 :  Apparent Resistivity from Computed Focusing Mode 4
RLA5 .OHMM                 :  RLA5_1 Edited (RLA5_2 Edited)
~Parameter Information Block
#MNEM.UNIT            Value   Description
#---------- ----------------  -----------
PROJECT.             KARJISAN:  
SET  .               SPLICE:  
~Other Information Block
# 
~A       DEPTH            DTC             GR           NPHI           PEFZ           RHOZ           RLA1           RLA2           RLA3           RLA4           RLA5 
# ...
     655.77720       180.0316       141.9288       0.352600         3.1225         2.2078         2.7468         3.0299         3.2785         3.2784         3.2460
     655.92960       173.9881       141.3724       0.354400         3.0728         2.2237         2.7017         3.0810         3.3848         3.4044         3.3826
     656.08200       168.8650       131.5624       0.349600         3.0410         2.2292         2.8018         3.2119         3.5528         3.5911         3.5544
     656.23440       165.4490       130.3974       0.365600         2.9940         2.2259         2.9326         3.2934         3.6725         3.7774         3.7472
     656.38680       162.3679       126.6348       0.351600         2.9292         2.2196         2.8739         3.1568         3.4872         3.6070         3.5801
     656.53920       160.3112       130.4489       0.346600         2.9006         2.2100         2.8805         3.1044         3.3816         3.5126         3.4970
     656.69160       158.8539       131.1462       0.332400         2.9203         2.1980         2.8336         3.0394         3.3054         3.4276         3.4073
     656.84400       159.5189       130.7438       0.341300         2.9732         2.1945         2.8443         3.0623         3.3289         3.4264         3.4185
     656.99640       160.9405       130.3515       0.352300         3.0307         2.1926         2.8605         3.1042         3.3716         3.4541         3.4449
     657.14880       164.2140       128.8121       0.358700         3.0598         2.1875         2.7452         3.0250         3.2902         3.3332         3.3171
     657.30120       166.8384       127.9789       0.367200         3.0621         2.1749         2.5774         2.8527         3.1073         3.1245         3.1012
     657.45360       170.8263       126.6274       0.392400         3.0143         2.1398         2.3044         2.6747         2.9306         2.9418         2.9131
     657.60600       176.4004       129.1033       0.404400         2.9597         2.0975         1.5223         1.7339         1.8558         1.8473         1.8222
     657.75840       179.7090       129.8394       0.420300         2.9257         2.0750         1.4473         1.6378         1.7417         1.7321         1.7079
     657.91080       180.3540       130.9459       0.416200         2.9038         2.0893         1.5184         1.7077         1.8016         1.7918         1.7657
     658.06320       179.7563       131.7914       0.404500         2.8936         2.1214         1.5828         1.8213         1.9209         1.9075         1.8793
     658.21560       177.9207       136.0062       0.392500         2.8940         2.1599         1.5870         1.9282         2.0620         2.0515         2.0234
     658.36800       175.8730       134.6087       0.360600         2.9042         2.1964         1.6426         2.0526         2.2333         2.2300         2.2042
     658.52040       171.8249       123.6619       0.338400         2.8949         2.2391         1.9415         2.3864         2.6987         2.7095         2.6858
     658.67280       166.3174       117.2123       0.314000         2.8659         2.2654         2.2723         2.7112         3.1563         3.2070         3.1958
     658.82520       160.9844       122.5703       0.301500         2.8605         2.2734         2.4884         2.8897         3.3687         3.4757         3.4837
     658.97760       154.6212       126.6782       0.322600         2.9063         2.2862         2.6287         2.9816         3.4369         3.5909         3.6126
     659.13000       128.1474       121.5843       0.325300         2.9616         2.2988         2.7235         3.0085         3.4037         3.5972         3.6522
     659.28240       126.3980       110.5671       0.318500         2.9982         2.3077         2.7372         3.0038         3.3663         3.5642         3.6402
     659.43480       124.6066       112.4058       0.294900         3.0299         2.3095         2.8849         3.2143         3.5487         3.7616         3.8664
     659.58720       124.0505       112.6913       0.299800         3.0748         2.3037         2.8035         3.1761         3.4779         3.6739         3.8077
     659.73960       123.1535       114.3457       0.314900         3.1290         2.3049         2.8005         3.1699         3.4637         3.6276         3.7816
     659.89200       124.6113       115.2274       0.327100         3.1271         2.2925         2.8447         3.2000         3.5087         3.6285         3.8051
     660.04440       127.7973       125.7459       0.335600         3.1185         2.2779         2.7282         3.0827         3.3874         3.4780         3.6537
     660.19680       131.3887       131.0870       0.355100         3.0975         2.2708         2.5762         2.9323         3.2189         3.2836         3.4456
     660.34920       134.3627       131.6427       0.356700         3.0908         2.2716         2.5508         2.9373         3.1943         3.2647         3.4158
     660.50160       136.2664       129.7217       0.341500         3.0578         2.2767         2.6087         3.0292         3.2985         3.3785         3.5176
     660.65400       134.2046       130.9715       0.320400         3.0277         2.2811         2.2821         2.5781         2.7780         2.8535         2.9561
     660.80640       128.2481       127.0477       0.329000         3.0061         2.2834         1.9404         2.1518         2.3233         2.3761         2.4440
     660.95880       122.9408       129.2135       0.337300         2.9897         2.2815         1.8847         2.0999         2.2896         2.3326         2.3975
     661.11120       121.4314       128.2095       0.363300         2.9385         2.2617         1.9272         2.1838         2.4116         2.4403         2.4958
     661.26360       124.2411       128.1785       0.358700         2.9035         2.2367         2.0924         2.4688         2.7487         2.7757         2.8292
     661.41600       130.6278       123.9488       0.349600         2.8787         2.2139         2.2034         2.7133         3.0202         3.0527         3.1012
     661.56840       137.8547       124.7170       0.334400         2.9018         2.2090         2.2049         2.7432         3.0563         3.1036         3.1443
     661.72080       139.8654       126.2619       0.342700         2.9350         2.2154         2.0761         2.5811         2.8918         2.9587         3.0043
     661.87320       134.9479       121.7451       0.341700         2.9724         2.2316         1.7862         2.1157         2.3485         2.4102         2.4467
     662.02560       128.4578       117.2858       0.333000         3.0202         2.2518         1.6522         1.8954         2.1002         2.1756         2.2033
     662.17800       123.9175       120.6262       0.348800         3.0523         2.2552         1.7086         2.0257         2.2539         2.3668         2.4004
     662.33040       121.1663       124.9391       0.356300         3.0638         2.2588         1.8355         2.2316         2.4885         2.6191         2.6573
     662.48280       127.0751       128.0657       0.362700         3.0392         2.2432         2.1287         2.6631         2.9977         3.1412         3.1836
     662.63520       136.1845       128.1891       0.346400         3.0239         2.2333         2.3709         2.9492         3.3957         3.5392         3.5927
     662.78760       142.1978       128.6932       0.342000         3.0226         2.2132         2.3181         2.8263         3.2760         3.4087         3.4650
     662.94000       147.7094       125.3086       0.357600         3.0359         2.2032         2.1351         2.6447         3.0615         3.1960         3.2654
     663.09240       146.4822       123.9416       0.358300         3.0648         2.2127         1.9011         2.3366         2.6976         2.8338         2.9116
