~Version Information Block
VERS .                  2.0:  CWLS LOG ASCII STANDARD - VERSION 2.0
WRAP .                   NO:  One line per depth step
~Well Information Block
#MNEM.UNIT        Data Type   Information
#---------- ----------------  -----------
STRT .M           416.81400:  START DEPTH
STOP .M          1602.18120:  STOP DEPTH
STEP .M             0.15240:  STEP
NULL .              -999.25:  NULL VALUE
COMP .                     :  COMPANY
WELL .                 KJ-04:  WELL
FLD  .                     :  FIELD
LOC  .                     :  LOCATION
CTRY .                     :  COUNTRY
STAT .                     :  STATE
CNTY .                     :  COUNTY
SRVC .                     :  SERVICE COMPANY
DATE .                     :  DATE
API  .                     :  API NUMBER
UWI  .                     :  UNIQUE WELL ID
~Curve Information Block
#MNEM.UNIT         API CODE   Curve Description
#---------- ----------------  -----------------
DEPTH.M                    :  DEPTH (BOREHOLE)
DTC  .US/F                 :  Delta-T (also called Slowness or Interval Transit Time)
GR   .GAPI                 :  GR_1 Edited
NPHI .V/V                  :  NPHI_1 Edited
PEFZ .B/E                  :  PEFZ_1 Edited
RHOZ .G/C3                 :  Standard Resolution Formation Density (RHOZ_1 Edited)
RLA1 .OHMM                 :  Apparent Resistivity from Computed Focusing Mode 1
RLA2 .OHMM                 :  Apparent Resistivity from Computed Focusing Mode 2
RLA3 .OHMM                 :  Apparent Resistivity from Computed Focusing Mode 3
RLA4 .OHMM                 :  Apparent Resistivity from Computed Focusing Mode 4
RLA5 .OHMM                 :  RLA5_1 Edited (RLA5_2 Edited)
~Parameter Information Block
#MNEM.UNIT            Value   Description
#---------- ----------------  -----------
PROJECT.             KARJISAN:  
SET  .               SPLICE:  
~Other Information Block
# 
~A       DEPTH            DTC             GR           NPHI           PEFZ           RHOZ           RLA1           RLA2           RLA3           RLA4           RLA5 
# ...
    1514.55120       148.3020        28.4486       0.546700         0.4781         1.1923        26.0848        40.1181        42.4157        42.1076        38.9187
    1514.70360       148.3539        29.9913       0.584200         0.5040         1.1903        27.5618        40.9743        43.7897        43.4586        40.3906
    1514.85600       148.5129        30.1360       0.579900         0.5357         1.1888        26.3704        34.1820        36.1032        35.7964        33.2323
    1515.00840       148.4955        28.7516       0.601800         0.5393         1.1896        26.5995        37.4039        39.9902        39.8085        37.3996
    1515.16080       148.5958        24.9849       0.585200         0.5272         1.1933        26.8008        37.7932        40.2428        40.1870        37.7396
    1515.31320       148.7087        23.5799       0.561100         0.5201         1.1961        25.2737        38.1538        41.3265        41.2934        38.9224
    1515.46560       148.6350        21.8330       0.547500         0.5064         1.1970        23.3854        34.4236        37.2676        37.2959        34.9573
    1515.61800       148.5739        21.3328       0.560400         0.4951         1.1965        21.2057        32.2122        34.9171        34.9692        32.6932
    1515.77040       148.4003        20.2118       0.586300         0.4647         1.1961        21.0210        32.7326        35.6904        35.7465        33.4311
    1515.92280       148.4465        24.6368       0.582500         0.4384         1.1960        20.5430        32.3794        35.6743        35.7447        33.4548
    1516.07520       148.6651        26.7753       0.565000         0.4193         1.1958        19.8146        29.9829        32.9544        32.9262        30.8022
    1516.22760       148.5869        29.3965       0.525300         0.4240         1.1966        19.6457        29.7098        32.5592        32.5484        30.2969
    1516.38000       148.5456        30.1441       0.534900         0.4458         1.1983        19.5350        29.5313        32.3981        32.2895        30.0139
    1516.53240       148.6447        35.7333       0.511100         0.4751         1.2009        19.7861        29.2175        32.0619        31.9240        29.6937
    1516.68480       148.6903        34.6029       0.530700         0.5016         1.2012        20.4245        28.8231        31.5568        31.4119        29.2375
    1516.83720       148.7201        31.2940       0.555100         0.5136         1.1997        20.8569        27.0381        28.9560        28.8425        26.8185
    1516.98960       148.6520        25.9633       0.581800         0.5128         1.1974        21.7776        26.7572        28.0545        27.8497        25.9770
    1517.14200       148.7485        23.6739       0.621700         0.4932         1.1940        22.3611        27.0619        28.3368        28.1496        26.2573
    1517.29440       148.9297        22.2227       0.570700         0.4929         1.1915        23.0778        26.8488        28.1014        27.9090        26.2601
    1517.44680       148.9827        21.1139       0.549800         0.4938         1.1896        23.5224        28.2192        29.9391        29.6505        28.0510
    1517.59920       149.2600        22.1126       0.507100         0.4948         1.1907        23.0868        25.5937        26.9616        26.7031        25.3348
    1517.75160       149.1542        22.9971       0.522500         0.4770         1.1919        24.0776        28.6729        30.1471        29.8194        28.4765
    1517.90400       148.8702        25.4849       0.573300         0.4646         1.1924        24.9514        30.6892        32.6543        32.1107        30.7702
    1518.05640       149.1114        29.7866       0.578600         0.4486         1.1935        22.6034        23.4450        24.2054        23.6243        22.9930
    1518.20880       149.3591        31.5300       0.597200         0.4324         1.1965        23.7350        23.0237        23.4888        22.8294        22.4256
    1518.36120       149.3203        31.8167       0.561400         0.4170         1.1993        24.8964        24.4258        24.8424        24.1383        23.7507
    1518.51360       149.2421        31.9772       0.600900         0.4299         1.2000        22.1988        21.9089        21.9253        21.3735        21.3295
    1518.66600       149.3100        29.3424       0.619400         0.4703         1.1968        21.9599        21.6658        21.6813        21.2538        21.4461
    1518.81840       148.7826        26.1786       0.619300         0.4990         1.1952        21.6415        22.6088        22.7968        22.4193        22.6579
    1518.97080       148.4836        23.5924       0.631100         0.5109         1.1972        20.1603        21.2811        21.6779        21.3148        21.5923
    1519.12320       148.2571        27.4137       0.631500         0.5112         1.2005        17.6881        19.1964        19.6671        19.5781        19.8292
    1519.27560       147.8726        29.1946       0.638300         0.5568         1.2021        17.0822        19.3035        19.9265        20.0282        20.4512
    1519.42800       147.5290        31.7252       0.608700         0.6856         1.2305        17.4251        21.0203        21.7583        21.9882        22.4968
    1519.58040       145.2112        37.8746       0.570900         0.9472         1.3944        18.0854        23.5132        24.6781        25.1674        25.6247
    1519.73280       137.1353        50.4116       0.554400         1.4033         1.6662         9.1499         9.9967        10.2939        10.4243        10.5142
    1519.88520       130.4792        64.8995       0.511800         1.9933         1.9434         7.1039         7.6487         7.8944         7.9279         7.9835
    1520.03760       126.2337        77.8218       0.491800         2.4630         2.0362         6.6042         7.2786         7.5338         7.5479         7.5857
    1520.19000       124.1397        89.8372       0.491000         2.6339         1.9927         6.2715         6.9865         7.1777         7.1734         7.1494
    1520.34240       130.4987        98.5822       0.515200         2.5641         1.9403         6.3492         7.4248         7.6539         7.6691         7.6285
    1520.49480       127.8383       105.8538       0.510100         2.5181         2.0121         5.3402         6.4838         6.6959         6.7150         6.6949
    1520.64720       121.9186       112.9115       0.509500         2.6857         2.1815         3.5619         3.9740         4.0894         4.0733         4.0191
    1520.79960       116.5464       126.1391       0.453600         2.9211         2.3068         3.2141         3.4711         3.5867         3.5518         3.5146
    1520.95200       109.6251       132.6832       0.472200         3.1872         2.3452         3.0850         3.3049         3.4355         3.3990         3.3142
    1521.10440       110.5269       134.6107       0.434000         3.5489         2.3604         3.1425         3.4030         3.5327         3.5098         3.4296
    1521.25680       109.9484       119.8454       0.462900         4.2406         2.4640         3.4376         3.9029         4.0458         4.0654         3.9759
    1521.40920       109.4859       112.5047       0.442900         4.9603         2.5567         4.0133         4.7556         4.9638         5.0437         4.9658
    1521.56160       110.6876       111.4179       0.465700         5.3133         2.5273         3.5879         4.0751         4.2782         4.3536         4.3257
    1521.71400       112.9420       120.7611       0.508200         5.2458         2.4216         3.2595         3.5181         3.7515         3.8219         3.7982
    1521.86640       116.9341       122.0614       0.509900         5.0469         2.3292         3.5720         3.8047         4.0686         4.1816         4.2126
