~Version Information Block
VERS .                  2.0:  CWLS LOG ASCII STANDARD - VERSION 2.0
WRAP .                   NO:  One line per depth step
~Well Information Block
#MNEM.UNIT        Data Type   Information
#---------- ----------------  -----------
STRT .M           416.81400:  START DEPTH
STOP .M          1602.18120:  STOP DEPTH
STEP .M             0.15240:  STEP
NULL .              -999.25:  NULL VALUE
COMP .                     :  COMPANY
WELL .                 KJ-04:  WELL
FLD  .                     :  FIELD
LOC  .                     :  LOCATION
CTRY .                     :  COUNTRY
STAT .                     :  STATE
CNTY .                     :  COUNTY
SRVC .                     :  SERVICE COMPANY
DATE .                     :  DATE
API  .                     :  API NUMBER
UWI  .                     :  UNIQUE WELL ID
~Curve Information Block
#MNEM.UNIT         API CODE   Curve Description
#---------- ----------------  -----------------
DEPTH.M                    :  DEPTH (BOREHOLE)
DTC  .US/F                 :  Delta-T (also called Slowness or Interval Transit Time)
GR   .GAPI                 :  GR_1 Edited
NPHI .V/V                  :  NPHI_1 Edited
PEFZ .B/E                  :  PEFZ_1 Edited
RHOZ .G/C3                 :  Standard Resolution Formation Density (RHOZ_1 Edited)
RLA1 .OHMM                 :  Apparent Resistivity from Computed Focusing Mode 1
RLA2 .OHMM                 :  Apparent Resistivity from Computed Focusing Mode 2
RLA3 .OHMM                 :  Apparent Resistivity from Computed Focusing Mode 3
RLA4 .OHMM                 :  Apparent Resistivity from Computed Focusing Mode 4
RLA5 .OHMM                 :  RLA5_1 Edited (RLA5_2 Edited)
~Parameter Information Block
#MNEM.UNIT            Value   Description
#---------- ----------------  -----------
PROJECT.             KARJISAN:  
SET  .               SPLICE:  
~Other Information Block
# 
~A       DEPTH            DTC             GR           NPHI           PEFZ           RHOZ           RLA1           RLA2           RLA3           RLA4           RLA5 
# ...
    1596.69480       126.3416      -999.2500    -999.250000      -999.2500      -999.2500         0.0710    100000.0000    100000.0000         0.4612      -999.2500
    1596.84720       128.5990      -999.2500    -999.250000      -999.2500      -999.2500         0.0710    100000.0000    100000.0000         0.4612      -999.2500
    1596.99960       129.8277      -999.2500    -999.250000      -999.2500      -999.2500         0.0710    100000.0000    100000.0000         0.4612      -999.2500
    1597.15200       129.9633      -999.2500    -999.250000      -999.2500      -999.2500         0.0710    100000.0000    100000.0000         0.4612      -999.2500
    1597.30440       129.9624      -999.2500    -999.250000      -999.2500      -999.2500         0.0710    100000.0000    100000.0000         0.4612      -999.2500
    1597.45680       129.9570      -999.2500    -999.250000      -999.2500      -999.2500         0.0710    100000.0000    100000.0000         0.4612      -999.2500
    1597.60920       129.9491      -999.2500    -999.250000      -999.2500      -999.2500         0.0710    100000.0000    100000.0000         0.4612      -999.2500
    1597.76160       129.9024      -999.2500    -999.250000      -999.2500      -999.2500         0.0710    100000.0000    100000.0000         0.4612      -999.2500
    1597.91400       129.8185      -999.2500    -999.250000      -999.2500      -999.2500         0.0710    100000.0000    100000.0000         0.4612      -999.2500
    1598.06640       129.8185      -999.2500    -999.250000      -999.2500      -999.2500         0.0710    100000.0000    100000.0000         0.4612      -999.2500
    1598.21880       129.8185      -999.2500    -999.250000      -999.2500      -999.2500         0.0710    100000.0000    100000.0000         0.4612      -999.2500
    1598.37120       129.8185      -999.2500    -999.250000      -999.2500      -999.2500         0.0710    100000.0000    100000.0000         0.4612      -999.2500
    1598.52360       129.8185      -999.2500    -999.250000      -999.2500      -999.2500         0.0710    100000.0000    100000.0000         0.4612      -999.2500
    1598.67600       129.8185      -999.2500    -999.250000      -999.2500      -999.2500         0.0710    100000.0000    100000.0000         0.4612      -999.2500
    1598.82840       129.8185      -999.2500    -999.250000      -999.2500      -999.2500         0.0572     99998.6172     99998.6172         0.4474      -999.2500
    1598.98080       129.8185      -999.2500    -999.250000      -999.2500      -999.2500         0.0435     99997.2266     99997.2266         0.4337      -999.2500
    1599.13320       129.8185      -999.2500    -999.250000      -999.2500      -999.2500         0.0298     99995.8438     99995.8438         0.4200      -999.2500
    1599.28560       129.8185      -999.2500    -999.250000      -999.2500      -999.2500         0.0161     99994.4531     99994.4531         0.4063      -999.2500
    1599.43800       129.8185      -999.2500    -999.250000      -999.2500      -999.2500         0.0024     99993.0703     99993.0703         0.3925      -999.2500
    1599.59040       129.8185      -999.2500    -999.250000      -999.2500      -999.2500        -0.0114     99991.6797     99991.6797         0.3788      -999.2500
    1599.74280       129.8185      -999.2500    -999.250000      -999.2500      -999.2500        -0.0251     99990.2969     99990.2969         0.3651      -999.2500
    1599.89520       129.8185      -999.2500    -999.250000      -999.2500      -999.2500        -0.0388     99988.9063     99988.9063         0.3514      -999.2500
    1600.04760       129.8185        93.9575    -999.250000      -999.2500      -999.2500        -0.0525     99987.5234     99987.5234         0.3376      -999.2500
    1600.20000       129.8185        93.9575    -999.250000      -999.2500      -999.2500        -0.0662     99986.1328     99986.1328         0.3239      -999.2500
    1600.35240       129.8185        93.9575       0.507300      -999.2500      -999.2500        -0.0799     99984.7500     99984.7500         0.3102     99984.7500
    1600.50480       129.8185        93.9575       0.507300      -999.2500      -999.2500        -0.0937     99983.3594     99983.3594         0.2965     99983.3594
    1600.65720       129.8185        93.9575       0.507300      -999.2500      -999.2500        -0.1074     99981.9766     99981.9766         0.2828     99981.9766
    1600.80960       129.8185        93.9575       0.507300      -999.2500      -999.2500        -0.1211     99980.5859     99980.5859         0.2690     99980.5859
    1600.96200       129.8185        93.9575       0.507300      -999.2500      -999.2500        -0.1348     99979.2031     99979.2031         0.2553     99979.2031
    1601.11440       129.8185        93.9575       0.507300      -999.2500      -999.2500        -0.1485     99977.8125     99977.8125         0.2416     99977.8125
    1601.26680       129.8185        93.9575       0.507300      -999.2500      -999.2500        -0.1623     99976.4297     99976.4297         0.2279     99976.4297
    1601.41920       129.8185        93.9575       0.507300      -999.2500      -999.2500        -0.1760     99975.0391     99975.0391         0.2141     99975.0391
    1601.57160       129.8185        93.9575       0.507300      -999.2500      -999.2500        -0.1897     99973.6563     99973.6563         0.2004     99973.6563
    1601.72400       129.8185        93.9575       0.507300      -999.2500      -999.2500        -0.2034     99972.2656     99972.2656         0.1867     99972.2656
    1601.87640       129.8185        93.9575       0.507300      -999.2500      -999.2500        -0.2171     99970.8828     99970.8828         0.1730     99970.8828
    1602.02880       129.8185        93.9575       0.507300      -999.2500      -999.2500        -0.2309     99969.5000     99969.5000         0.1592     99969.5000
    1602.18120       129.8185        93.9575       0.507300      -999.2500      -999.2500        -0.2446     99968.1094     99968.1094         0.1455     99968.1094
